Place_Name,Category,City,Price,Rating,Type,is_holiday,holiday_type,Low_Days,Medium_Days,High_Days,Weather_Suitability,Ideal_Duration,Meal_Type,Latitude,Longitude,Open_Hour,Close_Hour,Time_Slot
Monumen Nasional,Wisata - Budaya,Jakarta,20000,5.0,Tourism,No,-,"Monday, Tuesday","Wednesday, Thursday, Friday","Saturday, Sunday","Cloudy, Sunny",99,None,-6.1753924,106.8271528,09:00:00,18:00:00,Afternoon
Kota Tua,Wisata - Budaya,Jakarta,0,5.0,Tourism,No,-,"Monday, Tuesday","Wednesday, Thursday, Friday","Saturday, Sunday","Cloudy, Sunny",82,None,-6.137644799999999,106.8171245,09:00:00,16:00:00,Morning
Dunia Fantasi,Wisata - Taman Hiburan,Jakarta,270000,5.0,Tourism,No,-,"Monday, Tuesday","Wednesday, Thursday, Friday","Saturday, Sunday","Cloudy, Sunny, Rainy",88,None,-6.125312399999999,106.8335377,08:00:00,20:00:00,Afternoon
Taman Mini Indonesia Indah (TMII),Wisata - Taman Hiburan,Jakarta,10000,5.0,Tourism,No,-,"Monday, Tuesday","Wednesday, Thursday, Friday","Saturday, Sunday","Cloudy, Sunny, Rainy",142,None,-6.302445899999999,106.8951559,07:00:00,17:00:00,Afternoon
Atlantis Water Adventure,Wisata - Taman Hiburan,Jakarta,94000,5.0,Tourism,No,-,"Monday, Tuesday","Wednesday, Thursday, Friday","Saturday, Sunday","Cloudy, Sunny, Rainy",110,None,-6.12419,106.839134,10:00:00,18:00:00,Afternoon
Taman Impian Jaya Ancol,Wisata - Taman Hiburan,Jakarta,25000,5.0,Tourism,No,-,"Monday, Tuesday","Wednesday, Thursday, Friday","Saturday, Sunday","Cloudy, Sunny, Rainy",177,None,-6.117333200000001,106.8579951,09:00:00,19:00:00,Afternoon
Kebun Binatang Ragunan,Wisata - Cagar Alam,Jakarta,4000,5.0,Tourism,No,-,"Monday, Tuesday","Wednesday, Thursday, Friday","Saturday, Sunday",Sunny,84,None,-6.3124593,106.8201865,09:00:00,17:00:00,Afternoon
Ocean Ecopark,Wisata - Taman Hiburan,Jakarta,180000,4.0,Tourism,No,-,"Monday, Tuesday","Wednesday, Thursday, Friday","Saturday, Sunday","Cloudy, Sunny, Rainy",64,None,-6.125801699999999,106.8363249,09:00:00,20:00:00,Afternoon
Pelabuhan Marina,Wisata - Bahari,Jakarta,175000,5.0,Tourism,No,-,"Monday, Tuesday","Wednesday, Thursday, Friday","Saturday, Sunday",Sunny,113,None,1.07888,103.931398,10:00:00,19:00:00,Afternoon
Pulau Tidung,Wisata - Bahari,Jakarta,150000,5.0,Tourism,No,-,"Monday, Tuesday","Wednesday, Thursday, Friday","Saturday, Sunday",Sunny,135,None,-5.803205300000001,106.5237907,09:00:00,17:00:00,Afternoon
Pulau Bidadari,Wisata - Bahari,Jakarta,5000,5.0,Tourism,No,-,"Monday, Tuesday","Wednesday, Thursday, Friday","Saturday, Sunday",Sunny,175,None,-6.036261499999999,106.7466201,08:00:00,20:00:00,Evening
Pulau Pari,Wisata - Bahari,Jakarta,150000,4.0,Tourism,No,-,"Monday, Tuesday","Wednesday, Thursday, Friday","Saturday, Sunday",Sunny,77,None,-5.9074328,106.5863989,07:00:00,19:00:00,Morning
Pulau Pramuka,Wisata - Bahari,Jakarta,5000,5.0,Tourism,No,-,"Monday, Tuesday","Wednesday, Thursday, Friday","Saturday, Sunday",Sunny,95,None,-5.745962,106.6136577,07:00:00,18:00:00,Afternoon
Pulau Pelangi,Wisata - Bahari,Jakarta,900000,5.0,Tourism,No,-,"Monday, Tuesday","Wednesday, Thursday, Friday","Saturday, Sunday",Sunny,161,None,-5.587055,106.5885,08:00:00,20:00:00,Morning
Pasar Seni,Wisata - Pusat Perbelanjaan,Jakarta,0,5.0,Tourism,No,-,"Monday, Tuesday","Wednesday, Thursday, Friday","Saturday, Sunday",Sunny,114,None,-6.1766868,106.8417666,07:00:00,18:00:00,Afternoon
Jembatan Kota Intan,Wisata - Budaya,Jakarta,0,5.0,Tourism,No,-,"Monday, Tuesday","Wednesday, Thursday, Friday","Saturday, Sunday","Cloudy, Sunny",166,None,-6.1314572,106.8106169,09:00:00,16:00:00,Morning
Museum Fatahillah,Wisata - Budaya,Jakarta,5000,5.0,Tourism,No,-,"Monday, Tuesday","Wednesday, Thursday, Friday","Saturday, Sunday","Cloudy, Sunny",142,None,-6.136448899999999,106.8130661,07:00:00,17:00:00,Morning
Museum Bank Indonesia,Wisata - Budaya,Jakarta,2000,5.0,Tourism,No,-,"Monday, Tuesday","Wednesday, Thursday, Friday","Saturday, Sunday","Cloudy, Sunny",74,None,-6.137127,106.813005,10:00:00,17:00:00,Afternoon
Kidzania,Wisata - Taman Hiburan,Jakarta,185000,5.0,Tourism,No,-,"Monday, Tuesday","Wednesday, Thursday, Friday","Saturday, Sunday","Cloudy, Sunny, Rainy",108,None,-6.225073499999999,106.8097144,07:00:00,20:00:00,Afternoon
Museum Taman Prasasti,Wisata - Budaya,Jakarta,2000,5.0,Tourism,No,-,"Monday, Tuesday","Wednesday, Thursday, Friday","Saturday, Sunday","Cloudy, Sunny",175,None,-6.172224099999998,106.8189695,08:00:00,17:00:00,Afternoon
Museum Wayang,Wisata - Budaya,Jakarta,5000,5.0,Tourism,No,-,"Monday, Tuesday","Wednesday, Thursday, Friday","Saturday, Sunday","Cloudy, Sunny",102,None,-6.1349072,106.8124452,09:00:00,18:00:00,Morning
Masjid Istiqlal,Wisata - Tempat Ibadah,Jakarta,0,5.0,Tourism,No,-,"Monday, Tuesday","Wednesday, Thursday, Friday","Saturday, Sunday",Sunny,97,None,-6.17017,106.83139,09:00:00,17:00:00,Morning
Gereja Katedral,Wisata - Tempat Ibadah,Jakarta,0,5.0,Tourism,No,-,"Monday, Tuesday","Wednesday, Thursday, Friday","Saturday, Sunday",Sunny,140,None,-6.169225000000001,106.833063,09:00:00,20:00:00,Morning
Museum Nasional,Wisata - Budaya,Jakarta,5000,5.0,Tourism,No,-,"Monday, Tuesday","Wednesday, Thursday, Friday","Saturday, Sunday","Cloudy, Sunny",107,None,-6.176402099999999,106.8215901,10:00:00,16:00:00,Morning
Pasar Tanah Abang,Wisata - Pusat Perbelanjaan,Jakarta,0,4.0,Tourism,No,-,"Monday, Tuesday","Wednesday, Thursday, Friday","Saturday, Sunday",Sunny,81,None,-6.189009599999999,106.8119312,08:00:00,16:00:00,Afternoon
Pecinan Glodok,Wisata - Pusat Perbelanjaan,Jakarta,0,5.0,Tourism,No,-,"Monday, Tuesday","Wednesday, Thursday, Friday","Saturday, Sunday",Sunny,100,None,-6.142758799999999,106.8140791,07:00:00,16:00:00,Evening
Sea World,Wisata - Taman Hiburan,Jakarta,115000,5.0,Tourism,No,-,"Monday, Tuesday","Wednesday, Thursday, Friday","Saturday, Sunday","Cloudy, Sunny, Rainy",88,None,-6.126477500000001,106.842963,08:00:00,19:00:00,Evening
Wisata Agro Edukatif Istana Susu Cibugary,Wisata - Taman Hiburan,Jakarta,35000,5.0,Tourism,No,-,"Monday, Tuesday","Wednesday, Thursday, Friday","Saturday, Sunday","Cloudy, Sunny, Rainy",137,None,-6.3568093,106.9062371,09:00:00,19:00:00,Evening
Wisata Kuliner Pecenongan,Wisata - Pusat Perbelanjaan,Jakarta,0,5.0,Tourism,No,-,"Monday, Tuesday","Wednesday, Thursday, Friday","Saturday, Sunday",Sunny,89,None,-6.166788700000001,106.8265261,09:00:00,17:00:00,Afternoon
Taman Menteng,Wisata - Taman Hiburan,Jakarta,0,5.0,Tourism,No,-,"Monday, Tuesday","Wednesday, Thursday, Friday","Saturday, Sunday","Cloudy, Sunny, Rainy",119,None,-6.1964087,106.8293106,09:00:00,20:00:00,Evening
Wisata Alam Mangrove Angke,Wisata - Cagar Alam,Jakarta,25000,5.0,Tourism,No,-,"Monday, Tuesday","Wednesday, Thursday, Friday","Saturday, Sunday",Sunny,130,None,-6.105334,106.735584,09:00:00,20:00:00,Afternoon
Setu Babakan,Wisata - Budaya,Jakarta,0,5.0,Tourism,No,-,"Monday, Tuesday","Wednesday, Thursday, Friday","Saturday, Sunday","Cloudy, Sunny",178,None,-6.341666699999999,106.8238889,08:00:00,19:00:00,Afternoon
Taman Suropati,Wisata - Taman Hiburan,Jakarta,0,5.0,Tourism,No,-,"Monday, Tuesday","Wednesday, Thursday, Friday","Saturday, Sunday","Cloudy, Sunny, Rainy",169,None,-6.1994034,106.8326228,10:00:00,17:00:00,Evening
Pasar Taman Puring,Wisata - Pusat Perbelanjaan,Jakarta,0,5.0,Tourism,No,-,"Monday, Tuesday","Wednesday, Thursday, Friday","Saturday, Sunday",Sunny,120,None,-6.241368999999999,106.7890587,09:00:00,20:00:00,Morning
Grand Indonesia Mall,Wisata - Pusat Perbelanjaan,Jakarta,0,5.0,Tourism,No,-,"Monday, Tuesday","Wednesday, Thursday, Friday","Saturday, Sunday",Sunny,85,None,-6.195180099999999,106.8204412,10:00:00,20:00:00,Afternoon
Skyrink - Mall Taman Anggrek,Wisata - Taman Hiburan,Jakarta,110000,5.0,Tourism,No,-,"Monday, Tuesday","Wednesday, Thursday, Friday","Saturday, Sunday","Cloudy, Sunny, Rainy",174,None,-6.178996,106.791941,08:00:00,16:00:00,Evening
Bumi Perkemahan Cibubur,Wisata - Taman Hiburan,Jakarta,10000,5.0,Tourism,No,-,"Monday, Tuesday","Wednesday, Thursday, Friday","Saturday, Sunday","Cloudy, Sunny, Rainy",114,None,-6.360248700000001,106.893842,09:00:00,17:00:00,Morning
Istana Negara Republik Indonesia,Wisata - Budaya,Jakarta,0,5.0,Tourism,No,-,"Monday, Tuesday","Wednesday, Thursday, Friday","Saturday, Sunday","Cloudy, Sunny",84,None,-6.168069000000001,106.8239727,08:00:00,18:00:00,Morning
Museum Macan (Modern and Contemporary Art in Nusantara),Wisata - Budaya,Jakarta,100000,5.0,Tourism,No,-,"Monday, Tuesday","Wednesday, Thursday, Friday","Saturday, Sunday","Cloudy, Sunny",120,None,-6.190942,106.767622,07:00:00,17:00:00,Afternoon
Galeri Nasional Indonesia,Wisata - Budaya,Jakarta,0,5.0,Tourism,No,-,"Monday, Tuesday","Wednesday, Thursday, Friday","Saturday, Sunday","Cloudy, Sunny",66,None,-6.178548200000001,106.8327716,10:00:00,19:00:00,Morning
Museum Bahari Jakarta,Wisata - Budaya,Jakarta,2000,5.0,Tourism,No,-,"Monday, Tuesday","Wednesday, Thursday, Friday","Saturday, Sunday","Cloudy, Sunny",123,None,-6.1269553,106.8085899,09:00:00,16:00:00,Afternoon
Museum Seni Rupa dan Kramik,Wisata - Budaya,Jakarta,5000,5.0,Tourism,No,-,"Monday, Tuesday","Wednesday, Thursday, Friday","Saturday, Sunday","Cloudy, Sunny",135,None,-6.1342598,106.814552,08:00:00,19:00:00,Morning
The Escape Hunt,Wisata - Taman Hiburan,Jakarta,70000,5.0,Tourism,No,-,"Monday, Tuesday","Wednesday, Thursday, Friday","Saturday, Sunday","Cloudy, Sunny, Rainy",143,None,-6.2555033,106.8122591,08:00:00,20:00:00,Evening
Monumen Selamat Datang,Wisata - Budaya,Jakarta,0,5.0,Tourism,No,-,"Monday, Tuesday","Wednesday, Thursday, Friday","Saturday, Sunday","Cloudy, Sunny",139,None,-6.194997799999999,106.8230496,08:00:00,17:00:00,Afternoon
Jakarta Aquarium dan Safari,Wisata - Taman Hiburan,Jakarta,185000,5.0,Tourism,No,-,"Monday, Tuesday","Wednesday, Thursday, Friday","Saturday, Sunday","Cloudy, Sunny, Rainy",156,None,-6.1752647,106.7904684,09:00:00,18:00:00,Afternoon
Pulau Semak Daun,Wisata - Bahari,Jakarta,40000,4.0,Tourism,No,-,"Monday, Tuesday","Wednesday, Thursday, Friday","Saturday, Sunday",Sunny,86,None,-5.729671599999999,106.5714158,10:00:00,17:00:00,Afternoon
Taman Situ Lembang,Wisata - Taman Hiburan,Jakarta,0,5.0,Tourism,No,-,"Monday, Tuesday","Wednesday, Thursday, Friday","Saturday, Sunday","Cloudy, Sunny, Rainy",106,None,-6.1978861,106.8346708,10:00:00,17:00:00,Afternoon
Taman Ismail Marzuki,Wisata - Budaya,Jakarta,5000,5.0,Tourism,No,-,"Monday, Tuesday","Wednesday, Thursday, Friday","Saturday, Sunday","Cloudy, Sunny",89,None,-6.1891586,106.8397738,10:00:00,20:00:00,Morning
Galeri Indonesia Kaya,Wisata - Budaya,Jakarta,0,5.0,Tourism,No,-,"Monday, Tuesday","Wednesday, Thursday, Friday","Saturday, Sunday","Cloudy, Sunny",104,None,-6.1948499,106.8200607,07:00:00,19:00:00,Morning
Museum Joang 45,Wisata - Budaya,Jakarta,2000,4.0,Tourism,No,-,"Monday, Tuesday","Wednesday, Thursday, Friday","Saturday, Sunday","Cloudy, Sunny",117,None,-6.186183799999998,106.8364761,08:00:00,20:00:00,Afternoon
Jakarta Planetarium,Wisata - Taman Hiburan,Jakarta,12000,5.0,Tourism,No,-,"Monday, Tuesday","Wednesday, Thursday, Friday","Saturday, Sunday","Cloudy, Sunny, Rainy",79,None,-6.190081899999999,106.8388532,08:00:00,20:00:00,Evening
Kampung Cina,Wisata - Budaya,Jakarta,15000,5.0,Tourism,No,-,"Monday, Tuesday","Wednesday, Thursday, Friday","Saturday, Sunday","Cloudy, Sunny",90,None,-6.3651357,106.7617984,08:00:00,19:00:00,Afternoon
Rumah Sipitung,Wisata - Budaya,Jakarta,5000,5.0,Tourism,No,-,"Monday, Tuesday","Wednesday, Thursday, Friday","Saturday, Sunday","Cloudy, Sunny",173,None,-6.10016,106.96057,08:00:00,20:00:00,Afternoon
Taman Agrowisata Cilangkap,Wisata - Taman Hiburan,Jakarta,0,5.0,Tourism,No,-,"Monday, Tuesday","Wednesday, Thursday, Friday","Saturday, Sunday","Cloudy, Sunny, Rainy",140,None,-6.340151399999999,106.9012561,07:00:00,20:00:00,Morning
Klenteng Jin De Yuan,Wisata - Tempat Ibadah,Jakarta,0,5.0,Tourism,No,-,"Monday, Tuesday","Wednesday, Thursday, Friday","Saturday, Sunday",Sunny,65,None,-6.144473700000001,106.8126018,09:00:00,16:00:00,Morning
Pantai Ancol,Wisata - Bahari,Jakarta,25000,5.0,Tourism,No,-,"Monday, Tuesday","Wednesday, Thursday, Friday","Saturday, Sunday",Sunny,88,None,-6.1194215,106.8502435,08:00:00,20:00:00,Afternoon
Taman Lapangan Banteng,Wisata - Taman Hiburan,Jakarta,0,5.0,Tourism,No,-,"Monday, Tuesday","Wednesday, Thursday, Friday","Saturday, Sunday","Cloudy, Sunny, Rainy",157,None,-6.170554999999999,106.8350378,07:00:00,19:00:00,Afternoon
Taman Ayodya,Wisata - Taman Hiburan,Jakarta,0,5.0,Tourism,No,-,"Monday, Tuesday","Wednesday, Thursday, Friday","Saturday, Sunday","Cloudy, Sunny, Rainy",128,None,-6.245229400000001,106.7946655,10:00:00,17:00:00,Morning
Museum Sumpah Pemuda,Wisata - Budaya,Jakarta,2000,5.0,Tourism,No,-,"Monday, Tuesday","Wednesday, Thursday, Friday","Saturday, Sunday","Cloudy, Sunny",144,None,-6.183838799999999,106.8430507,07:00:00,19:00:00,Afternoon
Museum Tekstil,Wisata - Budaya,Jakarta,5000,5.0,Tourism,No,-,"Monday, Tuesday","Wednesday, Thursday, Friday","Saturday, Sunday","Cloudy, Sunny",166,None,-6.187963400000002,106.8096081,07:00:00,16:00:00,Afternoon
Tugu Proklamasi,Wisata - Budaya,Jakarta,0,5.0,Tourism,No,-,"Monday, Tuesday","Wednesday, Thursday, Friday","Saturday, Sunday","Cloudy, Sunny",159,None,-6.2030468,106.8466623,09:00:00,20:00:00,Afternoon
Taman Legenda Keong Emas,Wisata - Taman Hiburan,Jakarta,30000,5.0,Tourism,No,-,"Monday, Tuesday","Wednesday, Thursday, Friday","Saturday, Sunday","Cloudy, Sunny, Rainy",159,None,-6.303904200000001,106.8936219,10:00:00,19:00:00,Evening
Museum Kebangkitan Nasional,Wisata - Budaya,Jakarta,2000,5.0,Tourism,No,-,"Monday, Tuesday","Wednesday, Thursday, Friday","Saturday, Sunday","Cloudy, Sunny",154,None,-6.178352,106.838094,08:00:00,20:00:00,Afternoon
Museum Sasmita Loka Ahmad Yani,Wisata - Budaya,Jakarta,2000,5.0,Tourism,No,-,"Monday, Tuesday","Wednesday, Thursday, Friday","Saturday, Sunday","Cloudy, Sunny",148,None,-6.204630300000001,106.8365324,07:00:00,20:00:00,Morning
Museum Basoeki Abdullah,Wisata - Budaya,Jakarta,1000,5.0,Tourism,No,-,"Monday, Tuesday","Wednesday, Thursday, Friday","Saturday, Sunday","Cloudy, Sunny",152,None,-6.289788499999998,106.7932681,10:00:00,17:00:00,Morning
Museum Layang-layang,Wisata - Budaya,Jakarta,10000,5.0,Tourism,No,-,"Monday, Tuesday","Wednesday, Thursday, Friday","Saturday, Sunday","Cloudy, Sunny",123,None,-6.3080282,106.790548,07:00:00,17:00:00,Morning
Margasatwa Muara Angke,Wisata - Cagar Alam,Jakarta,25000,5.0,Tourism,No,-,"Monday, Tuesday","Wednesday, Thursday, Friday","Saturday, Sunday",Sunny,77,None,-6.1160075,106.7692016,07:00:00,19:00:00,Afternoon
Pasar Petak Sembilan,Wisata - Pusat Perbelanjaan,Jakarta,0,5.0,Tourism,No,-,"Monday, Tuesday","Wednesday, Thursday, Friday","Saturday, Sunday",Sunny,146,None,-6.143672200000001,106.8129398,08:00:00,18:00:00,Morning
Freedom Library,Wisata - Budaya,Jakarta,0,5.0,Tourism,No,-,"Monday, Tuesday","Wednesday, Thursday, Friday","Saturday, Sunday","Cloudy, Sunny",89,None,-6.202248200000001,106.8451968,10:00:00,18:00:00,Afternoon
Perpustakaan Nasional,Wisata - Budaya,Jakarta,0,5.0,Tourism,No,-,"Monday, Tuesday","Wednesday, Thursday, Friday","Saturday, Sunday","Cloudy, Sunny",139,None,-6.181291799999999,106.8268717,09:00:00,20:00:00,Morning
Cibubur Garden Diary (Cibugary),Wisata - Cagar Alam,Jakarta,50000,5.0,Tourism,No,-,"Monday, Tuesday","Wednesday, Thursday, Friday","Saturday, Sunday",Sunny,148,None,-6.379996900000001,106.8949793,07:00:00,20:00:00,Morning
Waterboom PIK (Pantai Indah Kapuk),Wisata - Taman Hiburan,Jakarta,300000,5.0,Tourism,No,-,"Monday, Tuesday","Wednesday, Thursday, Friday","Saturday, Sunday","Cloudy, Sunny, Rainy",103,None,-6.113655899999999,106.7478596,09:00:00,16:00:00,Morning
Museum Perangko,Wisata - Budaya,Jakarta,5000,5.0,Tourism,No,-,"Monday, Tuesday","Wednesday, Thursday, Friday","Saturday, Sunday","Cloudy, Sunny",60,None,-6.304184100000001,106.9017725,09:00:00,16:00:00,Afternoon
Museum Tengah Kebun,Wisata - Budaya,Jakarta,0,5.0,Tourism,No,-,"Monday, Tuesday","Wednesday, Thursday, Friday","Saturday, Sunday","Cloudy, Sunny",76,None,-6.267513,106.824107,10:00:00,18:00:00,Afternoon
SnowBay Waterpark,Wisata - Taman Hiburan,Jakarta,180000,5.0,Tourism,No,-,"Monday, Tuesday","Wednesday, Thursday, Friday","Saturday, Sunday","Cloudy, Sunny, Rainy",76,None,-6.299271800000001,106.89151,08:00:00,20:00:00,Morning
Taman Cattleya,Wisata - Taman Hiburan,Jakarta,20000,5.0,Tourism,No,-,"Monday, Tuesday","Wednesday, Thursday, Friday","Saturday, Sunday","Cloudy, Sunny, Rainy",166,None,-6.181084299999999,106.7954476,09:00:00,20:00:00,Morning
Taman Hutan Tebet,Wisata - Taman Hiburan,Jakarta,0,5.0,Tourism,No,-,"Monday, Tuesday","Wednesday, Thursday, Friday","Saturday, Sunday","Cloudy, Sunny, Rainy",62,None,-6.237140900000001,106.8526505,10:00:00,20:00:00,Afternoon
Hutan Kota Srengseng,Wisata - Taman Hiburan,Jakarta,1000,5.0,Tourism,No,-,"Monday, Tuesday","Wednesday, Thursday, Friday","Saturday, Sunday","Cloudy, Sunny, Rainy",169,None,-6.210694499999999,106.7643954,07:00:00,19:00:00,Evening
Taman Spathodea,Wisata - Taman Hiburan,Jakarta,0,5.0,Tourism,No,-,"Monday, Tuesday","Wednesday, Thursday, Friday","Saturday, Sunday","Cloudy, Sunny, Rainy",65,None,-6.3226133,106.8241871,07:00:00,19:00:00,Afternoon
Plaza Indonesia,Wisata - Pusat Perbelanjaan,Jakarta,0,5.0,Tourism,No,-,"Monday, Tuesday","Wednesday, Thursday, Friday","Saturday, Sunday",Sunny,73,None,-6.193925900000002,106.8222158,09:00:00,16:00:00,Morning
Mall Thamrin City,Wisata - Pusat Perbelanjaan,Jakarta,0,5.0,Tourism,No,-,"Monday, Tuesday","Wednesday, Thursday, Friday","Saturday, Sunday",Sunny,61,None,-6.1946096,106.817905,09:00:00,18:00:00,Evening
Museum Satria Mandala,Wisata - Budaya,Jakarta,5000,5.0,Tourism,No,-,"Monday, Tuesday","Wednesday, Thursday, Friday","Saturday, Sunday","Cloudy, Sunny",154,None,-6.231698499999999,106.8185425,10:00:00,17:00:00,Afternoon
Alive Museum Ancol,Wisata - Taman Hiburan,Jakarta,200000,5.0,Tourism,No,-,"Monday, Tuesday","Wednesday, Thursday, Friday","Saturday, Sunday","Cloudy, Sunny, Rainy",124,None,-6.117534399999999,106.857313,08:00:00,17:00:00,Evening
Kawasan Kuliner BSM,Wisata - Pusat Perbelanjaan,Jakarta,0,5.0,Tourism,No,-,"Monday, Tuesday","Wednesday, Thursday, Friday","Saturday, Sunday",Sunny,162,None,-6.184258799999999,106.824033,10:00:00,16:00:00,Afternoon
Taman Pintar Yogyakarta,Wisata - Taman Hiburan,Yogyakarta,6000,5.0,Tourism,No,-,"Monday, Tuesday","Wednesday, Thursday, Friday","Saturday, Sunday","Cloudy, Sunny, Rainy",121,None,-7.800671500000001,110.3676551,08:00:00,19:00:00,Afternoon
Keraton Yogyakarta,Wisata - Budaya,Yogyakarta,15000,5.0,Tourism,No,-,"Monday, Tuesday","Wednesday, Thursday, Friday","Saturday, Sunday","Cloudy, Sunny",105,None,-7.8052845,110.3642031,07:00:00,20:00:00,Morning
Sindu Kusuma Edupark (SKE),Wisata - Taman Hiburan,Yogyakarta,20000,5.0,Tourism,No,-,"Monday, Tuesday","Wednesday, Thursday, Friday","Saturday, Sunday","Cloudy, Sunny, Rainy",173,None,-7.767297300000001,110.3542486,09:00:00,16:00:00,Evening
Museum Benteng Vredeburg Yogyakarta,Wisata - Budaya,Yogyakarta,3000,5.0,Tourism,No,-,"Monday, Tuesday","Wednesday, Thursday, Friday","Saturday, Sunday","Cloudy, Sunny",172,None,-7.800201599999999,110.3663044,08:00:00,20:00:00,Morning
De Mata Museum Jogja,Wisata - Budaya,Yogyakarta,50000,5.0,Tourism,No,-,"Monday, Tuesday","Wednesday, Thursday, Friday","Saturday, Sunday","Cloudy, Sunny",163,None,-7.816315599999999,110.3871442,09:00:00,18:00:00,Morning
Kampung Wisata Taman Sari,Wisata - Taman Hiburan,Yogyakarta,5000,5.0,Tourism,No,-,"Monday, Tuesday","Wednesday, Thursday, Friday","Saturday, Sunday","Cloudy, Sunny, Rainy",118,None,-7.8100673,110.3594581,10:00:00,18:00:00,Evening
Situs Warungboto,Wisata - Taman Hiburan,Yogyakarta,0,5.0,Tourism,No,-,"Monday, Tuesday","Wednesday, Thursday, Friday","Saturday, Sunday","Cloudy, Sunny, Rainy",80,None,-7.8102685,110.3931513,07:00:00,19:00:00,Afternoon
Nol Kilometer Jl.Malioboro,Wisata - Taman Hiburan,Yogyakarta,0,5.0,Tourism,No,-,"Monday, Tuesday","Wednesday, Thursday, Friday","Saturday, Sunday","Cloudy, Sunny, Rainy",109,None,-7.8013803,110.3647652,08:00:00,19:00:00,Afternoon
Gembira Loka Zoo,Wisata - Cagar Alam,Yogyakarta,60000,5.0,Tourism,No,-,"Monday, Tuesday","Wednesday, Thursday, Friday","Saturday, Sunday",Sunny,150,None,-7.806234399999999,110.3967977,09:00:00,18:00:00,Afternoon
Sumur Gumuling,Wisata - Taman Hiburan,Yogyakarta,7000,5.0,Tourism,No,-,"Monday, Tuesday","Wednesday, Thursday, Friday","Saturday, Sunday","Cloudy, Sunny, Rainy",100,None,-7.808791100000001,110.3591825,09:00:00,19:00:00,Morning
Desa Wisata Sungai Code Jogja Kota,Wisata - Taman Hiburan,Yogyakarta,0,5.0,Tourism,No,-,"Monday, Tuesday","Wednesday, Thursday, Friday","Saturday, Sunday","Cloudy, Sunny, Rainy",129,None,-7.822908900000001,110.3756894,08:00:00,17:00:00,Afternoon
Alun Alun Selatan Yogyakarta,Wisata - Taman Hiburan,Yogyakarta,0,5.0,Tourism,No,-,"Monday, Tuesday","Wednesday, Thursday, Friday","Saturday, Sunday","Cloudy, Sunny, Rainy",132,None,-7.8116719,110.363238,10:00:00,19:00:00,Afternoon
Monumen Yogya Kembali,Wisata - Budaya,Yogyakarta,15000,5.0,Tourism,No,-,"Monday, Tuesday","Wednesday, Thursday, Friday","Saturday, Sunday","Cloudy, Sunny",80,None,-7.7495904,110.3696068,07:00:00,17:00:00,Afternoon
Taman Pelangi Yogyakarta,Wisata - Taman Hiburan,Yogyakarta,15000,5.0,Tourism,No,-,"Monday, Tuesday","Wednesday, Thursday, Friday","Saturday, Sunday","Cloudy, Sunny, Rainy",70,None,-7.7505259,110.3687049,08:00:00,19:00:00,Morning
Kampung Wisata Kadipaten,Wisata - Budaya,Yogyakarta,0,5.0,Tourism,No,-,"Monday, Tuesday","Wednesday, Thursday, Friday","Saturday, Sunday","Cloudy, Sunny",154,None,-7.806093000000001,110.35831,10:00:00,18:00:00,Morning
Taman Budaya Yogyakarta,Wisata - Budaya,Yogyakarta,0,5.0,Tourism,No,-,"Monday, Tuesday","Wednesday, Thursday, Friday","Saturday, Sunday","Cloudy, Sunny",156,None,-7.8001041,110.3676579,09:00:00,20:00:00,Afternoon
Kampung Wisata Sosro Menduran,Wisata - Budaya,Yogyakarta,0,4.0,Tourism,No,-,"Monday, Tuesday","Wednesday, Thursday, Friday","Saturday, Sunday","Cloudy, Sunny",130,None,-7.792189999999999,110.362151,08:00:00,16:00:00,Afternoon
Monumen Batik Yogyakarta,Wisata - Budaya,Yogyakarta,40000,5.0,Tourism,No,-,"Monday, Tuesday","Wednesday, Thursday, Friday","Saturday, Sunday","Cloudy, Sunny",99,None,-7.8011159,110.3646172,08:00:00,16:00:00,Morning
Tugu Pal Putih Jogja,Wisata - Taman Hiburan,Yogyakarta,0,5.0,Tourism,No,-,"Monday, Tuesday","Wednesday, Thursday, Friday","Saturday, Sunday","Cloudy, Sunny, Rainy",115,None,-7.782943699999998,110.3670548,09:00:00,17:00:00,Evening
Tebing Breksi,Wisata - Budaya,Yogyakarta,20000,5.0,Tourism,No,-,"Monday, Tuesday","Wednesday, Thursday, Friday","Saturday, Sunday","Cloudy, Sunny",79,None,-7.781571400000001,110.5045827,09:00:00,19:00:00,Morning
Candi Donotirto,Wisata - Budaya,Yogyakarta,0,5.0,Tourism,No,-,"Monday, Tuesday","Wednesday, Thursday, Friday","Saturday, Sunday","Cloudy, Sunny",112,None,-7.795561299999998,110.3612095,10:00:00,18:00:00,Afternoon
Kawasan Malioboro,Wisata - Taman Hiburan,Yogyakarta,0,5.0,Tourism,No,-,"Monday, Tuesday","Wednesday, Thursday, Friday","Saturday, Sunday","Cloudy, Sunny, Rainy",101,None,-7.793167,110.3655238,08:00:00,18:00:00,Evening
Bangsal Pagelaran,Wisata - Budaya,Yogyakarta,5000,5.0,Tourism,No,-,"Monday, Tuesday","Wednesday, Thursday, Friday","Saturday, Sunday","Cloudy, Sunny",104,None,-7.805284299999999,110.3642137,09:00:00,20:00:00,Morning
Embung Tambakboyo,Wisata - Taman Hiburan,Yogyakarta,0,5.0,Tourism,No,-,"Monday, Tuesday","Wednesday, Thursday, Friday","Saturday, Sunday","Cloudy, Sunny, Rainy",135,None,-7.756227000000001,110.4150131,10:00:00,16:00:00,Morning
Hutan Pinus Pengger,Wisata - Taman Hiburan,Yogyakarta,3000,5.0,Tourism,No,-,"Monday, Tuesday","Wednesday, Thursday, Friday","Saturday, Sunday","Cloudy, Sunny, Rainy",109,None,-7.870483200000001,110.4599108,09:00:00,18:00:00,Morning
Monumen Serangan Umum 1 Maret,Wisata - Taman Hiburan,Yogyakarta,3000,5.0,Tourism,No,-,"Monday, Tuesday","Wednesday, Thursday, Friday","Saturday, Sunday","Cloudy, Sunny, Rainy",103,None,-7.801012399999999,110.3653376,08:00:00,20:00:00,Morning
Puncak Pinus Becici,Wisata - Taman Hiburan,Yogyakarta,3000,5.0,Tourism,No,-,"Monday, Tuesday","Wednesday, Thursday, Friday","Saturday, Sunday","Cloudy, Sunny, Rainy",88,None,-7.902035499999998,110.4374627,09:00:00,17:00:00,Afternoon
Bukit Bintang Yogyakarta,Wisata - Taman Hiburan,Yogyakarta,25000,5.0,Tourism,No,-,"Monday, Tuesday","Wednesday, Thursday, Friday","Saturday, Sunday","Cloudy, Sunny, Rainy",163,None,-7.845840699999997,110.4798457,09:00:00,18:00:00,Evening
Gedung Agung Yogyakarta,Wisata - Budaya,Yogyakarta,0,5.0,Tourism,No,-,"Monday, Tuesday","Wednesday, Thursday, Friday","Saturday, Sunday","Cloudy, Sunny",158,None,-7.800150599999999,110.3637507,10:00:00,19:00:00,Afternoon
The Lost World Castle,Wisata - Taman Hiburan,Yogyakarta,30000,5.0,Tourism,No,-,"Monday, Tuesday","Wednesday, Thursday, Friday","Saturday, Sunday","Cloudy, Sunny, Rainy",177,None,-7.6041648,110.4510042,08:00:00,20:00:00,Morning
Monumen Sanapati,Wisata - Budaya,Yogyakarta,15000,5.0,Tourism,No,-,"Monday, Tuesday","Wednesday, Thursday, Friday","Saturday, Sunday","Cloudy, Sunny",176,None,-7.788172800000001,110.3715403,10:00:00,20:00:00,Afternoon
Jurang Tembelan Kanigoro,Wisata - Taman Hiburan,Yogyakarta,2500,5.0,Tourism,No,-,"Monday, Tuesday","Wednesday, Thursday, Friday","Saturday, Sunday","Cloudy, Sunny, Rainy",169,None,-7.940106500000001,110.4300062,07:00:00,17:00:00,Afternoon
The World Landmarks - Merapi Park Yogyakarta,Wisata - Taman Hiburan,Yogyakarta,22000,5.0,Tourism,No,-,"Monday, Tuesday","Wednesday, Thursday, Friday","Saturday, Sunday","Cloudy, Sunny, Rainy",116,None,-7.620904599999999,110.4216275,07:00:00,19:00:00,Morning
Museum Sonobudoyo Unit I,Wisata - Budaya,Yogyakarta,5000,5.0,Tourism,No,-,"Monday, Tuesday","Wednesday, Thursday, Friday","Saturday, Sunday","Cloudy, Sunny",155,None,-7.8024499,110.3639555,10:00:00,18:00:00,Afternoon
Lava Bantal,Wisata - Budaya,Yogyakarta,5000,5.0,Tourism,No,-,"Monday, Tuesday","Wednesday, Thursday, Friday","Saturday, Sunday","Cloudy, Sunny",163,None,-7.808151800000001,110.4595183,08:00:00,17:00:00,Morning
Bukit Panguk Kediwung,Wisata - Budaya,Yogyakarta,250000,5.0,Tourism,No,-,"Monday, Tuesday","Wednesday, Thursday, Friday","Saturday, Sunday","Cloudy, Sunny",106,None,-7.9583695,110.4407622,07:00:00,17:00:00,Morning
Candi Prambanan,Wisata - Budaya,Yogyakarta,50000,5.0,Tourism,No,-,"Monday, Tuesday","Wednesday, Thursday, Friday","Saturday, Sunday","Cloudy, Sunny",145,None,-7.752020600000001,110.4914674,10:00:00,18:00:00,Morning
Watu Goyang,Wisata - Budaya,Yogyakarta,2500,5.0,Tourism,No,-,"Monday, Tuesday","Wednesday, Thursday, Friday","Saturday, Sunday","Cloudy, Sunny",90,None,-7.9274086,110.4120586,08:00:00,20:00:00,Morning
Kampung Wisata Rejowinangun,Wisata - Budaya,Yogyakarta,0,5.0,Tourism,No,-,"Monday, Tuesday","Wednesday, Thursday, Friday","Saturday, Sunday","Cloudy, Sunny",146,None,-7.8152776,110.3988359,07:00:00,16:00:00,Afternoon
Kauman Pakualaman Yogyakarta,Wisata - Budaya,Yogyakarta,0,5.0,Tourism,No,-,"Monday, Tuesday","Wednesday, Thursday, Friday","Saturday, Sunday","Cloudy, Sunny",180,None,-7.801034700000001,110.3751922,10:00:00,18:00:00,Afternoon
Alun-alun Utara Keraton Yogyakarta,Wisata - Budaya,Yogyakarta,0,5.0,Tourism,No,-,"Monday, Tuesday","Wednesday, Thursday, Friday","Saturday, Sunday","Cloudy, Sunny",61,None,-7.803897499999998,110.3644232,09:00:00,17:00:00,Morning
Pantai Goa Cemara,Wisata - Bahari,Yogyakarta,4000,5.0,Tourism,No,-,"Monday, Tuesday","Wednesday, Thursday, Friday","Saturday, Sunday",Sunny,175,None,-7.999422999999998,110.248963,09:00:00,17:00:00,Morning
Blue Lagoon Jogja,Wisata - Taman Hiburan,Yogyakarta,10000,5.0,Tourism,No,-,"Monday, Tuesday","Wednesday, Thursday, Friday","Saturday, Sunday","Cloudy, Sunny, Rainy",121,None,-7.7044358,110.45026,10:00:00,20:00:00,Evening
Gumuk Pasir Parangkusumo,Wisata - Taman Hiburan,Yogyakarta,0,5.0,Tourism,No,-,"Monday, Tuesday","Wednesday, Thursday, Friday","Saturday, Sunday","Cloudy, Sunny, Rainy",65,None,-8.0173266,110.3180791,08:00:00,16:00:00,Evening
Bukit Lintang Sewu,Wisata - Taman Hiburan,Yogyakarta,2000,5.0,Tourism,No,-,"Monday, Tuesday","Wednesday, Thursday, Friday","Saturday, Sunday","Cloudy, Sunny, Rainy",69,None,-7.915799699999999,110.4366436,09:00:00,17:00:00,Afternoon
Studio Alam Gamplong,Wisata - Taman Hiburan,Yogyakarta,10000,5.0,Tourism,No,-,"Monday, Tuesday","Wednesday, Thursday, Friday","Saturday, Sunday","Cloudy, Sunny, Rainy",95,None,-7.805793599999998,110.2367304,10:00:00,20:00:00,Afternoon
Watu Lumbung,Wisata - Cagar Alam,Yogyakarta,5000,5.0,Tourism,No,-,"Monday, Tuesday","Wednesday, Thursday, Friday","Saturday, Sunday",Sunny,139,None,-7.992437900000001,110.317778,10:00:00,20:00:00,Morning
Air Terjun Kedung Pedut,Wisata - Cagar Alam,Yogyakarta,20000,5.0,Tourism,No,-,"Monday, Tuesday","Wednesday, Thursday, Friday","Saturday, Sunday",Sunny,138,None,-7.769987499999998,110.1210707,09:00:00,18:00:00,Morning
Puncak Kebun Buah Mangunan,Wisata - Taman Hiburan,Yogyakarta,5000,5.0,Tourism,No,-,"Monday, Tuesday","Wednesday, Thursday, Friday","Saturday, Sunday","Cloudy, Sunny, Rainy",161,None,-7.941371800000001,110.4247345,07:00:00,16:00:00,Morning
Desa Wisata Gamplong,Wisata - Taman Hiburan,Yogyakarta,10000,5.0,Tourism,No,-,"Monday, Tuesday","Wednesday, Thursday, Friday","Saturday, Sunday","Cloudy, Sunny, Rainy",90,None,-7.805523199999997,110.2374676,08:00:00,17:00:00,Evening
Kawasan Wisata Sosrowijayan,Wisata - Pusat Perbelanjaan,Yogyakarta,0,4.0,Tourism,No,-,"Monday, Tuesday","Wednesday, Thursday, Friday","Saturday, Sunday",Sunny,96,None,-7.7916235,110.361956,10:00:00,17:00:00,Evening
Grojogan Watu Purbo Bangunrejo,Wisata - Taman Hiburan,Yogyakarta,10000,5.0,Tourism,No,-,"Monday, Tuesday","Wednesday, Thursday, Friday","Saturday, Sunday","Cloudy, Sunny, Rainy",167,None,-7.6340172,110.33837,09:00:00,20:00:00,Afternoon
Wisata Alam Kalibiru,Wisata - Cagar Alam,Yogyakarta,20000,5.0,Tourism,No,-,"Monday, Tuesday","Wednesday, Thursday, Friday","Saturday, Sunday",Sunny,130,None,-7.8057305,110.127969,08:00:00,20:00:00,Afternoon
Jogja Exotarium,Wisata - Taman Hiburan,Yogyakarta,20000,5.0,Tourism,No,-,"Monday, Tuesday","Wednesday, Thursday, Friday","Saturday, Sunday","Cloudy, Sunny, Rainy",115,None,-7.7280356,110.3591712,10:00:00,18:00:00,Evening
Puncak Gunung Api Purba - Nglanggeran,Wisata - Cagar Alam,Yogyakarta,10000,5.0,Tourism,No,-,"Monday, Tuesday","Wednesday, Thursday, Friday","Saturday, Sunday",Sunny,86,None,-7.841252999999998,110.543056,09:00:00,17:00:00,Afternoon
Bendung Lepen,Wisata - Taman Hiburan,Yogyakarta,0,5.0,Tourism,No,-,"Monday, Tuesday","Wednesday, Thursday, Friday","Saturday, Sunday","Cloudy, Sunny, Rainy",136,None,-7.831666800000002,110.3945119,07:00:00,18:00:00,Evening
Bunker Kaliadem Merapi,Wisata - Cagar Alam,Yogyakarta,3000,5.0,Tourism,No,-,"Monday, Tuesday","Wednesday, Thursday, Friday","Saturday, Sunday",Sunny,148,None,-7.582919800000001,110.4476816,08:00:00,20:00:00,Morning
Ledok Sambi,Wisata - Cagar Alam,Yogyakarta,0,5.0,Tourism,No,-,"Monday, Tuesday","Wednesday, Thursday, Friday","Saturday, Sunday",Sunny,171,None,-7.647094300000001,110.4280998,08:00:00,20:00:00,Afternoon
Seribu Batu Songgo Langit,Wisata - Cagar Alam,Yogyakarta,2000,5.0,Tourism,No,-,"Monday, Tuesday","Wednesday, Thursday, Friday","Saturday, Sunday",Sunny,146,None,-7.931098399999999,110.430919,10:00:00,19:00:00,Morning
Goa Jomblang,Wisata - Cagar Alam,Yogyakarta,500000,5.0,Tourism,No,-,"Monday, Tuesday","Wednesday, Thursday, Friday","Saturday, Sunday",Sunny,165,None,-8.0281562,110.6383307,07:00:00,20:00:00,Morning
Desa Wisata Rumah Domes/Teletubbies,Wisata - Taman Hiburan,Yogyakarta,5000,5.0,Tourism,No,-,"Monday, Tuesday","Wednesday, Thursday, Friday","Saturday, Sunday","Cloudy, Sunny, Rainy",152,None,-7.813608499999999,110.5033442,07:00:00,17:00:00,Afternoon
Bukit Wisata Pulepayung,Wisata - Cagar Alam,Yogyakarta,10000,5.0,Tourism,No,-,"Monday, Tuesday","Wednesday, Thursday, Friday","Saturday, Sunday",Sunny,154,None,-7.800110599999999,110.1238954,08:00:00,18:00:00,Morning
Bentara Budaya Yogyakarta (BBY),Wisata - Budaya,Yogyakarta,0,5.0,Tourism,No,-,"Monday, Tuesday","Wednesday, Thursday, Friday","Saturday, Sunday","Cloudy, Sunny",86,None,-7.7857242,110.3746954,07:00:00,19:00:00,Morning
Goa Rancang Kencono,Wisata - Cagar Alam,Yogyakarta,5000,5.0,Tourism,No,-,"Monday, Tuesday","Wednesday, Thursday, Friday","Saturday, Sunday",Sunny,98,None,-7.9492612,110.4926511,10:00:00,20:00:00,Afternoon
Goa Cerme,Wisata - Cagar Alam,Yogyakarta,3000,5.0,Tourism,No,-,"Monday, Tuesday","Wednesday, Thursday, Friday","Saturday, Sunday",Sunny,80,None,-7.979441299999999,110.3803114,08:00:00,20:00:00,Afternoon
Wisata Kraton Jogja,Wisata - Budaya,Yogyakarta,7000,5.0,Tourism,No,-,"Monday, Tuesday","Wednesday, Thursday, Friday","Saturday, Sunday","Cloudy, Sunny",69,None,-7.806753499999999,110.3636659,08:00:00,17:00:00,Morning
Desa Wisata Kelor,Wisata - Taman Hiburan,Yogyakarta,0,5.0,Tourism,No,-,"Monday, Tuesday","Wednesday, Thursday, Friday","Saturday, Sunday","Cloudy, Sunny, Rainy",62,None,-7.641025800000001,110.3622794,09:00:00,18:00:00,Morning
Pantai Patihan,Wisata - Bahari,Yogyakarta,5000,5.0,Tourism,No,-,"Monday, Tuesday","Wednesday, Thursday, Friday","Saturday, Sunday",Sunny,172,None,-7.997777999999999,110.2449113,09:00:00,20:00:00,Afternoon
Pantai Kukup,Wisata - Bahari,Yogyakarta,10000,4.0,Tourism,No,-,"Monday, Tuesday","Wednesday, Thursday, Friday","Saturday, Sunday",Sunny,133,None,-8.133712299999997,110.5547433,09:00:00,19:00:00,Evening
Pantai Ngrawe (Mesra),Wisata - Bahari,Yogyakarta,10000,5.0,Tourism,No,-,"Monday, Tuesday","Wednesday, Thursday, Friday","Saturday, Sunday",Sunny,108,None,-8.1333389,110.5537405,07:00:00,19:00:00,Evening
Pantai Ngobaran,Wisata - Bahari,Yogyakarta,5000,5.0,Tourism,No,-,"Monday, Tuesday","Wednesday, Thursday, Friday","Saturday, Sunday",Sunny,102,None,-8.1184844,110.5028785,08:00:00,19:00:00,Afternoon
Pantai Pulang Sawal,Wisata - Bahari,Yogyakarta,10000,5.0,Tourism,No,-,"Monday, Tuesday","Wednesday, Thursday, Friday","Saturday, Sunday",Sunny,103,None,-8.1506589,110.6126311,07:00:00,18:00:00,Afternoon
Pantai Baron,Wisata - Bahari,Yogyakarta,10000,5.0,Tourism,No,-,"Monday, Tuesday","Wednesday, Thursday, Friday","Saturday, Sunday",Sunny,121,None,-8.1288246,110.5487763,08:00:00,19:00:00,Morning
Pantai Pok Tunggal,Wisata - Bahari,Yogyakarta,10000,5.0,Tourism,No,-,"Monday, Tuesday","Wednesday, Thursday, Friday","Saturday, Sunday",Sunny,151,None,-8.1554468,110.6217582,08:00:00,18:00:00,Afternoon
Hutan Pinus Asri,Wisata - Cagar Alam,Yogyakarta,2500,5.0,Tourism,No,-,"Monday, Tuesday","Wednesday, Thursday, Friday","Saturday, Sunday",Sunny,80,None,-7.9209209,110.4355651,09:00:00,19:00:00,Morning
Pasar Kebon Empring Bintaran,Wisata - Pusat Perbelanjaan,Yogyakarta,0,5.0,Tourism,No,-,"Monday, Tuesday","Wednesday, Thursday, Friday","Saturday, Sunday",Sunny,99,None,-7.836320499999998,110.4575806,10:00:00,18:00:00,Afternoon
"Bukit Paralayang, Watugupit",Wisata - Cagar Alam,Yogyakarta,5000,5.0,Tourism,No,-,"Monday, Tuesday","Wednesday, Thursday, Friday","Saturday, Sunday",Sunny,177,None,-8.026855099999999,110.3459122,10:00:00,18:00:00,Morning
Kampung Wisata Dipowinatan,Wisata - Budaya,Yogyakarta,220000,5.0,Tourism,No,-,"Monday, Tuesday","Wednesday, Thursday, Friday","Saturday, Sunday","Cloudy, Sunny",142,None,-7.810552899999999,110.3704987,09:00:00,18:00:00,Morning
Watu Mabur Mangunan,Wisata - Cagar Alam,Yogyakarta,2500,5.0,Tourism,No,-,"Monday, Tuesday","Wednesday, Thursday, Friday","Saturday, Sunday",Sunny,99,None,-7.947121,110.441,10:00:00,19:00:00,Morning
Pintoe Langit Dahromo,Wisata - Cagar Alam,Yogyakarta,2500,5.0,Tourism,No,-,"Monday, Tuesday","Wednesday, Thursday, Friday","Saturday, Sunday",Sunny,102,None,-7.913608000000001,110.437783,10:00:00,16:00:00,Afternoon
Green Village Gedangsari,Wisata - Taman Hiburan,Yogyakarta,2000,5.0,Tourism,No,-,"Monday, Tuesday","Wednesday, Thursday, Friday","Saturday, Sunday","Cloudy, Sunny, Rainy",102,None,-7.813093999999999,110.615571,08:00:00,20:00:00,Evening
Kebun Teh Nglinggo,Wisata - Cagar Alam,Yogyakarta,6000,5.0,Tourism,No,-,"Monday, Tuesday","Wednesday, Thursday, Friday","Saturday, Sunday",Sunny,75,None,-7.647054,110.1414699,08:00:00,17:00:00,Morning
Geoforest Watu Payung Turunan,Wisata - Cagar Alam,Yogyakarta,0,5.0,Tourism,No,-,"Monday, Tuesday","Wednesday, Thursday, Friday","Saturday, Sunday",Sunny,106,None,-7.974294,110.4364363,10:00:00,19:00:00,Morning
Pantai Timang,Wisata - Bahari,Yogyakarta,10000,5.0,Tourism,No,-,"Monday, Tuesday","Wednesday, Thursday, Friday","Saturday, Sunday",Sunny,117,None,-8.1759266,110.6624196,08:00:00,19:00:00,Afternoon
Puncak Segoro,Wisata - Cagar Alam,Yogyakarta,5000,5.0,Tourism,No,-,"Monday, Tuesday","Wednesday, Thursday, Friday","Saturday, Sunday",Sunny,111,None,-8.1026167,110.4562084,08:00:00,18:00:00,Morning
Candi Borobudur,Wisata - Budaya,Yogyakarta,50000,5.0,Tourism,No,-,"Monday, Tuesday","Wednesday, Thursday, Friday","Saturday, Sunday","Cloudy, Sunny",71,None,-7.6078738,110.2037513,10:00:00,17:00:00,Afternoon
Candi Ijo,Wisata - Budaya,Yogyakarta,5000,5.0,Tourism,No,-,"Monday, Tuesday","Wednesday, Thursday, Friday","Saturday, Sunday","Cloudy, Sunny",84,None,-7.783827600000001,110.5118987,10:00:00,20:00:00,Morning
Pantai Indrayanti,Wisata - Bahari,Yogyakarta,10000,5.0,Tourism,No,-,"Monday, Tuesday","Wednesday, Thursday, Friday","Saturday, Sunday",Sunny,136,None,-8.1508415,110.6129852,09:00:00,19:00:00,Morning
Pantai Nglambor,Wisata - Bahari,Yogyakarta,10000,5.0,Tourism,No,-,"Monday, Tuesday","Wednesday, Thursday, Friday","Saturday, Sunday",Sunny,145,None,-8.1827028,110.6792399,08:00:00,18:00:00,Morning
Pasar Beringharjo,Wisata - Pusat Perbelanjaan,Yogyakarta,0,5.0,Tourism,No,-,"Monday, Tuesday","Wednesday, Thursday, Friday","Saturday, Sunday",Sunny,79,None,-7.798794300000001,110.367443,08:00:00,16:00:00,Afternoon
Museum Ullen Sentalu,Wisata - Budaya,Yogyakarta,100000,5.0,Tourism,No,-,"Monday, Tuesday","Wednesday, Thursday, Friday","Saturday, Sunday","Cloudy, Sunny",95,None,-7.5978656,110.4233959,09:00:00,19:00:00,Morning
Museum Gunung Merapi,Wisata - Budaya,Yogyakarta,10000,5.0,Tourism,No,-,"Monday, Tuesday","Wednesday, Thursday, Friday","Saturday, Sunday","Cloudy, Sunny",177,None,-7.615927200000001,110.4243329,09:00:00,19:00:00,Afternoon
Pantai Parangtritis,Wisata - Bahari,Yogyakarta,10000,5.0,Tourism,No,-,"Monday, Tuesday","Wednesday, Thursday, Friday","Saturday, Sunday",Sunny,163,None,-8.024607999999999,110.3298045,07:00:00,17:00:00,Morning
Goa Pindul,Wisata - Cagar Alam,Yogyakarta,40000,5.0,Tourism,No,-,"Monday, Tuesday","Wednesday, Thursday, Friday","Saturday, Sunday",Sunny,114,None,-7.9339721,110.651966,09:00:00,19:00:00,Morning
Candi Ratu Boko,Wisata - Budaya,Yogyakarta,75000,5.0,Tourism,No,-,"Monday, Tuesday","Wednesday, Thursday, Friday","Saturday, Sunday","Cloudy, Sunny",154,None,-7.7705416,110.4894158,08:00:00,20:00:00,Afternoon
Pantai Depok Jogja,Wisata - Bahari,Yogyakarta,10000,5.0,Tourism,No,-,"Monday, Tuesday","Wednesday, Thursday, Friday","Saturday, Sunday",Sunny,98,None,-8.0137087,110.2914777,08:00:00,17:00:00,Evening
Pantai Sundak,Wisata - Bahari,Yogyakarta,5000,5.0,Tourism,No,-,"Monday, Tuesday","Wednesday, Thursday, Friday","Saturday, Sunday",Sunny,155,None,-8.147065300000001,110.6078504,08:00:00,16:00:00,Morning
Hutan Mangrove Kulon Progo,Wisata - Bahari,Yogyakarta,5000,5.0,Tourism,No,-,"Monday, Tuesday","Wednesday, Thursday, Friday","Saturday, Sunday",Sunny,123,None,-7.8933459,110.0198257,10:00:00,17:00:00,Evening
Jogja Bay Pirates Adventure Waterpark,Wisata - Taman Hiburan,Yogyakarta,150000,5.0,Tourism,No,-,"Monday, Tuesday","Wednesday, Thursday, Friday","Saturday, Sunday","Cloudy, Sunny, Rainy",73,None,-7.747846099999999,110.4188754,09:00:00,17:00:00,Evening
Pantai Sepanjang,Wisata - Bahari,Yogyakarta,10000,5.0,Tourism,No,-,"Monday, Tuesday","Wednesday, Thursday, Friday","Saturday, Sunday",Sunny,106,None,-8.136665599999999,110.5659962,10:00:00,19:00:00,Morning
Pantai Krakal,Wisata - Bahari,Yogyakarta,10000,5.0,Tourism,No,-,"Monday, Tuesday","Wednesday, Thursday, Friday","Saturday, Sunday",Sunny,149,None,-8.145019,110.5998857,09:00:00,18:00:00,Afternoon
Pantai Glagah,Wisata - Bahari,Yogyakarta,5000,5.0,Tourism,No,-,"Monday, Tuesday","Wednesday, Thursday, Friday","Saturday, Sunday",Sunny,146,None,-7.911942699999999,110.0647339,08:00:00,17:00:00,Evening
Pantai Siung,Wisata - Bahari,Yogyakarta,10000,5.0,Tourism,No,-,"Monday, Tuesday","Wednesday, Thursday, Friday","Saturday, Sunday",Sunny,137,None,-8.1818233,110.6832394,08:00:00,18:00:00,Afternoon
Pantai Sadranan,Wisata - Bahari,Yogyakarta,10000,5.0,Tourism,No,-,"Monday, Tuesday","Wednesday, Thursday, Friday","Saturday, Sunday",Sunny,100,None,-8.145667999999997,110.6043914,10:00:00,17:00:00,Evening
Pantai Nguluran,Wisata - Bahari,Yogyakarta,10000,5.0,Tourism,No,-,"Monday, Tuesday","Wednesday, Thursday, Friday","Saturday, Sunday",Sunny,178,None,-8.1060061,110.4618655,09:00:00,20:00:00,Morning
Pantai Samas,Wisata - Bahari,Yogyakarta,4000,4.0,Tourism,No,-,"Monday, Tuesday","Wednesday, Thursday, Friday","Saturday, Sunday",Sunny,75,None,-8.0045535,110.2703756,08:00:00,17:00:00,Evening
Pantai Drini,Wisata - Bahari,Yogyakarta,10000,5.0,Tourism,No,-,"Monday, Tuesday","Wednesday, Thursday, Friday","Saturday, Sunday",Sunny,135,None,-8.1384509,110.577522,09:00:00,17:00:00,Afternoon
Air Terjun Sri Gethuk,Wisata - Cagar Alam,Yogyakarta,15000,5.0,Tourism,No,-,"Monday, Tuesday","Wednesday, Thursday, Friday","Saturday, Sunday",Sunny,172,None,-7.943178000000001,110.48924,10:00:00,20:00:00,Morning
Candi Sewu,Wisata - Budaya,Yogyakarta,50000,5.0,Tourism,No,-,"Monday, Tuesday","Wednesday, Thursday, Friday","Saturday, Sunday","Cloudy, Sunny",148,None,-7.7439217,110.4929095,09:00:00,19:00:00,Morning
Pantai Wediombo,Wisata - Bahari,Yogyakarta,5000,5.0,Tourism,No,-,"Monday, Tuesday","Wednesday, Thursday, Friday","Saturday, Sunday",Sunny,78,None,-8.1862462,110.709901,10:00:00,19:00:00,Evening
Pantai Jogan,Wisata - Bahari,Yogyakarta,5000,5.0,Tourism,No,-,"Monday, Tuesday","Wednesday, Thursday, Friday","Saturday, Sunday",Sunny,147,None,-8.180135,110.6763715,08:00:00,19:00:00,Afternoon
Pantai Ngrenehan,Wisata - Bahari,Yogyakarta,3000,5.0,Tourism,No,-,"Monday, Tuesday","Wednesday, Thursday, Friday","Saturday, Sunday",Sunny,179,None,-8.1211475,110.5142337,10:00:00,16:00:00,Evening
Pantai Jungwok,Wisata - Bahari,Yogyakarta,5000,5.0,Tourism,No,-,"Monday, Tuesday","Wednesday, Thursday, Friday","Saturday, Sunday",Sunny,164,None,-8.1978223,110.7123461,09:00:00,19:00:00,Morning
Pantai Greweng,Wisata - Bahari,Yogyakarta,5000,5.0,Tourism,No,-,"Monday, Tuesday","Wednesday, Thursday, Friday","Saturday, Sunday",Sunny,116,None,-8.197864399999998,110.7186216,08:00:00,17:00:00,Afternoon
Pantai Sedahan,Wisata - Bahari,Yogyakarta,5000,5.0,Tourism,No,-,"Monday, Tuesday","Wednesday, Thursday, Friday","Saturday, Sunday",Sunny,75,None,-8.1978943,110.7208535,08:00:00,19:00:00,Afternoon
Pantai Watu Kodok,Wisata - Bahari,Yogyakarta,5000,5.0,Tourism,No,-,"Monday, Tuesday","Wednesday, Thursday, Friday","Saturday, Sunday",Sunny,179,None,-8.1370556,110.5746611,08:00:00,20:00:00,Afternoon
Pantai Kesirat,Wisata - Bahari,Yogyakarta,5000,5.0,Tourism,No,-,"Monday, Tuesday","Wednesday, Thursday, Friday","Saturday, Sunday",Sunny,117,None,-8.096153500000002,110.4350483,07:00:00,17:00:00,Morning
Pantai Ngandong,Wisata - Bahari,Yogyakarta,10000,5.0,Tourism,No,-,"Monday, Tuesday","Wednesday, Thursday, Friday","Saturday, Sunday",Sunny,127,None,-8.146423,110.6061408,09:00:00,17:00:00,Morning
Galaxy Waterpark Jogja,Wisata - Taman Hiburan,Yogyakarta,40000,5.0,Tourism,No,-,"Monday, Tuesday","Wednesday, Thursday, Friday","Saturday, Sunday","Cloudy, Sunny, Rainy",92,None,-7.815963299999999,110.4136917,10:00:00,16:00:00,Morning
Desa Wisata Pulesari,Wisata - Taman Hiburan,Yogyakarta,0,5.0,Tourism,No,-,"Monday, Tuesday","Wednesday, Thursday, Friday","Saturday, Sunday","Cloudy, Sunny, Rainy",88,None,-7.625880599999999,110.371698,07:00:00,20:00:00,Evening
Desa Wisata Tembi,Wisata - Taman Hiburan,Yogyakarta,50000,5.0,Tourism,No,-,"Monday, Tuesday","Wednesday, Thursday, Friday","Saturday, Sunday","Cloudy, Sunny, Rainy",152,None,-7.872567300000001,110.3546963,10:00:00,18:00:00,Morning
Wisata Kaliurang,Wisata - Cagar Alam,Yogyakarta,8000,5.0,Tourism,No,-,"Monday, Tuesday","Wednesday, Thursday, Friday","Saturday, Sunday",Sunny,172,None,-7.6120675,110.4205209,07:00:00,17:00:00,Morning
Heha Sky View,Wisata - Taman Hiburan,Yogyakarta,15000,5.0,Tourism,No,-,"Monday, Tuesday","Wednesday, Thursday, Friday","Saturday, Sunday","Cloudy, Sunny, Rainy",127,None,-7.8496144,110.478324,10:00:00,17:00:00,Evening
Taman Sungai Mudal,Wisata - Cagar Alam,Yogyakarta,10000,5.0,Tourism,No,-,"Monday, Tuesday","Wednesday, Thursday, Friday","Saturday, Sunday",Sunny,170,None,-7.762813599999998,110.1161626,10:00:00,17:00:00,Morning
Pantai Sanglen,Wisata - Bahari,Yogyakarta,10000,5.0,Tourism,No,-,"Monday, Tuesday","Wednesday, Thursday, Friday","Saturday, Sunday",Sunny,72,None,-8.1367456,110.5716362,10:00:00,16:00:00,Afternoon
Pantai Congot,Wisata - Bahari,Yogyakarta,3000,5.0,Tourism,No,-,"Monday, Tuesday","Wednesday, Thursday, Friday","Saturday, Sunday",Sunny,172,None,-7.907542500000001,110.0535658,07:00:00,20:00:00,Evening
GunungTangkuban perahu,Wisata - Cagar Alam,Bandung,30000,5.0,Tourism,No,-,"Monday, Tuesday","Wednesday, Thursday, Friday","Saturday, Sunday",Sunny,160,None,-6.759637700000001,107.6097807,08:00:00,18:00:00,Morning
Jalan Braga,Wisata - Budaya,Bandung,0,5.0,Tourism,No,-,"Monday, Tuesday","Wednesday, Thursday, Friday","Saturday, Sunday","Cloudy, Sunny",100,None,-6.9150534,107.6089842,10:00:00,20:00:00,Afternoon
Gedung Sate,Wisata - Budaya,Bandung,5000,5.0,Tourism,No,-,"Monday, Tuesday","Wednesday, Thursday, Friday","Saturday, Sunday","Cloudy, Sunny",137,None,-6.9024812,107.61881,07:00:00,17:00:00,Afternoon
Trans Studio Bandung,Wisata - Taman Hiburan,Bandung,280000,5.0,Tourism,No,-,"Monday, Tuesday","Wednesday, Thursday, Friday","Saturday, Sunday","Cloudy, Sunny, Rainy",160,None,-6.9250943,107.6364944,10:00:00,16:00:00,Evening
Taman Hutan Raya Ir. H. Djuanda,Wisata - Cagar Alam,Bandung,15000,5.0,Tourism,No,-,"Monday, Tuesday","Wednesday, Thursday, Friday","Saturday, Sunday",Sunny,128,None,-6.8565791,107.6323734,10:00:00,18:00:00,Morning
Farm House Susu Lembang,Wisata - Taman Hiburan,Bandung,30000,5.0,Tourism,No,-,"Monday, Tuesday","Wednesday, Thursday, Friday","Saturday, Sunday","Cloudy, Sunny, Rainy",79,None,-6.832968999999999,107.6056183,07:00:00,16:00:00,Afternoon
Kebun Binatang Bandung,Wisata - Cagar Alam,Bandung,20000,4.0,Tourism,No,-,"Monday, Tuesday","Wednesday, Thursday, Friday","Saturday, Sunday",Sunny,171,None,-6.8897177,107.6077282,08:00:00,16:00:00,Morning
Kawah Putih,Wisata - Cagar Alam,Bandung,81000,5.0,Tourism,No,-,"Monday, Tuesday","Wednesday, Thursday, Friday","Saturday, Sunday",Sunny,139,None,-7.166203899999999,107.4021256,09:00:00,19:00:00,Afternoon
Tebing Karaton,Wisata - Cagar Alam,Bandung,15000,5.0,Tourism,No,-,"Monday, Tuesday","Wednesday, Thursday, Friday","Saturday, Sunday",Sunny,67,None,-6.8340683,107.6636151,07:00:00,17:00:00,Morning
Dusun Bambu,Wisata - Taman Hiburan,Bandung,25000,5.0,Tourism,No,-,"Monday, Tuesday","Wednesday, Thursday, Friday","Saturday, Sunday","Cloudy, Sunny, Rainy",124,None,-6.790504899999999,107.5778343,09:00:00,18:00:00,Evening
Museum Geologi Bandung,Wisata - Budaya,Bandung,2000,5.0,Tourism,No,-,"Monday, Tuesday","Wednesday, Thursday, Friday","Saturday, Sunday","Cloudy, Sunny",101,None,-6.900716200000001,107.6214553,10:00:00,16:00:00,Morning
Museum Konferensi Asia Afrika,Wisata - Budaya,Bandung,0,5.0,Tourism,No,-,"Monday, Tuesday","Wednesday, Thursday, Friday","Saturday, Sunday","Cloudy, Sunny",157,None,-6.921109200000001,107.609597,07:00:00,16:00:00,Morning
Masjid Raya Bandung,Wisata - Tempat Ibadah,Bandung,0,5.0,Tourism,No,-,"Monday, Tuesday","Wednesday, Thursday, Friday","Saturday, Sunday",Sunny,88,None,-6.9216897,107.6061399,09:00:00,16:00:00,Morning
Dago Dreampark,Wisata - Taman Hiburan,Bandung,40000,5.0,Tourism,No,-,"Monday, Tuesday","Wednesday, Thursday, Friday","Saturday, Sunday","Cloudy, Sunny, Rainy",91,None,-6.8486423,107.625939,09:00:00,20:00:00,Morning
Orchid Forest Cikole,Wisata - Taman Hiburan,Bandung,50000,5.0,Tourism,No,-,"Monday, Tuesday","Wednesday, Thursday, Friday","Saturday, Sunday","Cloudy, Sunny, Rainy",61,None,-6.780493,107.637475,08:00:00,16:00:00,Afternoon
Kawasan Punclut,Wisata - Taman Hiburan,Bandung,20000,5.0,Tourism,No,-,"Monday, Tuesday","Wednesday, Thursday, Friday","Saturday, Sunday","Cloudy, Sunny, Rainy",174,None,-6.8419756,107.622824,10:00:00,18:00:00,Afternoon
Alun-Alun Kota Bandung,Wisata - Taman Hiburan,Bandung,0,5.0,Tourism,No,-,"Monday, Tuesday","Wednesday, Thursday, Friday","Saturday, Sunday","Cloudy, Sunny, Rainy",149,None,-6.9218571,107.6070141,09:00:00,18:00:00,Afternoon
Museum Sri Baduga,Wisata - Budaya,Bandung,3000,5.0,Tourism,No,-,"Monday, Tuesday","Wednesday, Thursday, Friday","Saturday, Sunday","Cloudy, Sunny",172,None,-6.9375748,107.603775,10:00:00,16:00:00,Morning
Rabbit Town,Wisata - Taman Hiburan,Bandung,45000,4.0,Tourism,No,-,"Monday, Tuesday","Wednesday, Thursday, Friday","Saturday, Sunday","Cloudy, Sunny, Rainy",67,None,-6.8669518,107.6100859,08:00:00,19:00:00,Evening
Stone Garden Citatah,Wisata - Taman Hiburan,Bandung,30000,5.0,Tourism,No,-,"Monday, Tuesday","Wednesday, Thursday, Friday","Saturday, Sunday","Cloudy, Sunny, Rainy",160,None,-6.8281528,107.4350179,10:00:00,17:00:00,Afternoon
The Great Asia Africa,Wisata - Taman Hiburan,Bandung,50000,5.0,Tourism,No,-,"Monday, Tuesday","Wednesday, Thursday, Friday","Saturday, Sunday","Cloudy, Sunny, Rainy",78,None,-6.833122999999999,107.6041595,07:00:00,18:00:00,Afternoon
Bukit Moko,Wisata - Cagar Alam,Bandung,25000,5.0,Tourism,No,-,"Monday, Tuesday","Wednesday, Thursday, Friday","Saturday, Sunday",Sunny,109,None,-6.8422202,107.6767988,09:00:00,18:00:00,Morning
Gunung Papandayan,Wisata - Cagar Alam,Bandung,30000,5.0,Tourism,No,-,"Monday, Tuesday","Wednesday, Thursday, Friday","Saturday, Sunday",Sunny,109,None,-7.319325300000001,107.7310494,10:00:00,20:00:00,Afternoon
Amazing Art World,Wisata - Budaya,Bandung,75000,5.0,Tourism,No,-,"Monday, Tuesday","Wednesday, Thursday, Friday","Saturday, Sunday","Cloudy, Sunny",143,None,-6.8516591,107.5955534,08:00:00,17:00:00,Afternoon
Gua Belanda,Wisata - Cagar Alam,Bandung,15000,5.0,Tourism,No,-,"Monday, Tuesday","Wednesday, Thursday, Friday","Saturday, Sunday",Sunny,140,None,-6.8544594,107.6377907,10:00:00,16:00:00,Morning
Taman Balai Kota Bandung,Wisata - Taman Hiburan,Bandung,0,5.0,Tourism,No,-,"Monday, Tuesday","Wednesday, Thursday, Friday","Saturday, Sunday","Cloudy, Sunny, Rainy",69,None,-6.912966000000001,107.6096031,07:00:00,19:00:00,Evening
Panghegar Waterboom Bandung,Wisata - Taman Hiburan,Bandung,75000,5.0,Tourism,No,-,"Monday, Tuesday","Wednesday, Thursday, Friday","Saturday, Sunday","Cloudy, Sunny, Rainy",101,None,-6.961403199999999,107.6227321,07:00:00,17:00:00,Afternoon
Gunung Manglayang,Wisata - Cagar Alam,Bandung,7500,5.0,Tourism,No,-,"Monday, Tuesday","Wednesday, Thursday, Friday","Saturday, Sunday",Sunny,85,None,-6.876111099999999,107.7436111,07:00:00,16:00:00,Morning
Lembang Park & Zoo,Wisata - Cagar Alam,Bandung,50000,5.0,Tourism,No,-,"Monday, Tuesday","Wednesday, Thursday, Friday","Saturday, Sunday",Sunny,166,None,-6.8059154,107.5919726,09:00:00,16:00:00,Afternoon
Taman Lalu Lintas Ade Irma Suryani Nasution,Wisata - Taman Hiburan,Bandung,7000,5.0,Tourism,No,-,"Monday, Tuesday","Wednesday, Thursday, Friday","Saturday, Sunday","Cloudy, Sunny, Rainy",70,None,-6.911211,107.6133389,08:00:00,17:00:00,Afternoon
Lawangwangi Creative Space,Wisata - Taman Hiburan,Bandung,0,5.0,Tourism,No,-,"Monday, Tuesday","Wednesday, Thursday, Friday","Saturday, Sunday","Cloudy, Sunny, Rainy",139,None,-6.8478549,107.6276827,09:00:00,17:00:00,Morning
Curug Dago,Wisata - Cagar Alam,Bandung,12000,4.0,Tourism,No,-,"Monday, Tuesday","Wednesday, Thursday, Friday","Saturday, Sunday",Sunny,117,None,-6.865522499999999,107.6181878,07:00:00,18:00:00,Afternoon
Kampung Korea Bandung,Wisata - Budaya,Bandung,15000,5.0,Tourism,No,-,"Monday, Tuesday","Wednesday, Thursday, Friday","Saturday, Sunday","Cloudy, Sunny",121,None,-6.9154546,107.640769,07:00:00,17:00:00,Morning
Kampung Batu Malakasari,Wisata - Taman Hiburan,Bandung,10000,5.0,Tourism,No,-,"Monday, Tuesday","Wednesday, Thursday, Friday","Saturday, Sunday","Cloudy, Sunny, Rainy",148,None,-7.0093633,107.6069444,10:00:00,20:00:00,Evening
Jendela Alam,Wisata - Taman Hiburan,Bandung,20000,5.0,Tourism,No,-,"Monday, Tuesday","Wednesday, Thursday, Friday","Saturday, Sunday","Cloudy, Sunny, Rainy",140,None,-6.819604,107.5964519,09:00:00,16:00:00,Evening
Curug Tilu Leuwi Opat,Wisata - Cagar Alam,Bandung,10000,5.0,Tourism,No,-,"Monday, Tuesday","Wednesday, Thursday, Friday","Saturday, Sunday",Sunny,175,None,-6.790569199999999,107.5826388,09:00:00,18:00:00,Afternoon
Kiara Artha Park,Wisata - Taman Hiburan,Bandung,15000,5.0,Tourism,No,-,"Monday, Tuesday","Wednesday, Thursday, Friday","Saturday, Sunday","Cloudy, Sunny, Rainy",169,None,-6.9159459,107.6421462,10:00:00,18:00:00,Afternoon
NuArt Sculpture Park,Wisata - Taman Hiburan,Bandung,50000,5.0,Tourism,No,-,"Monday, Tuesday","Wednesday, Thursday, Friday","Saturday, Sunday","Cloudy, Sunny, Rainy",142,None,-6.8778589,107.5720263,10:00:00,20:00:00,Morning
Upside Down World Bandung,Wisata - Taman Hiburan,Bandung,100000,4.0,Tourism,No,-,"Monday, Tuesday","Wednesday, Thursday, Friday","Saturday, Sunday","Cloudy, Sunny, Rainy",70,None,-6.896300000000001,107.617,07:00:00,20:00:00,Evening
Pesona Nirwana Waterpark & Cottages,Wisata - Taman Hiburan,Bandung,50000,5.0,Tourism,No,-,"Monday, Tuesday","Wednesday, Thursday, Friday","Saturday, Sunday","Cloudy, Sunny, Rainy",77,None,-7.040915399999998,107.5269156,08:00:00,19:00:00,Afternoon
Taman Lansia,Wisata - Taman Hiburan,Bandung,0,5.0,Tourism,No,-,"Monday, Tuesday","Wednesday, Thursday, Friday","Saturday, Sunday","Cloudy, Sunny, Rainy",88,None,-6.9021326,107.6209387,08:00:00,20:00:00,Afternoon
Kampoeng Tulip,Wisata - Taman Hiburan,Bandung,15000,5.0,Tourism,No,-,"Monday, Tuesday","Wednesday, Thursday, Friday","Saturday, Sunday","Cloudy, Sunny, Rainy",65,None,-6.963162,107.66195,08:00:00,19:00:00,Evening
Selasar Sunaryo Art Space,Wisata - Taman Hiburan,Bandung,25000,5.0,Tourism,No,-,"Monday, Tuesday","Wednesday, Thursday, Friday","Saturday, Sunday","Cloudy, Sunny, Rainy",167,None,-6.8585406,107.6365486,09:00:00,17:00:00,Afternoon
Teras Cikapundung BBWS,Wisata - Taman Hiburan,Bandung,0,5.0,Tourism,No,-,"Monday, Tuesday","Wednesday, Thursday, Friday","Saturday, Sunday","Cloudy, Sunny, Rainy",88,None,-6.8844199,107.6068344,10:00:00,17:00:00,Evening
Museum Barli,Wisata - Budaya,Bandung,15000,5.0,Tourism,No,-,"Monday, Tuesday","Wednesday, Thursday, Friday","Saturday, Sunday","Cloudy, Sunny",157,None,-6.878238699999999,107.5875349,07:00:00,20:00:00,Morning
Wisata Batu Kuda,Wisata - Cagar Alam,Bandung,10000,5.0,Tourism,No,-,"Monday, Tuesday","Wednesday, Thursday, Friday","Saturday, Sunday",Sunny,155,None,-6.893610600000001,107.7447399,10:00:00,18:00:00,Afternoon
Monumen Bandung Lautan Api,Wisata - Budaya,Bandung,0,5.0,Tourism,No,-,"Monday, Tuesday","Wednesday, Thursday, Friday","Saturday, Sunday","Cloudy, Sunny",98,None,-6.9338497,107.604925,07:00:00,19:00:00,Afternoon
Museum Gedung Sate,Wisata - Budaya,Bandung,5000,5.0,Tourism,No,-,"Monday, Tuesday","Wednesday, Thursday, Friday","Saturday, Sunday","Cloudy, Sunny",67,None,-6.902637899999999,107.619169,09:00:00,16:00:00,Afternoon
Monumen Perjuangan Rakyat Jawa Barat,Wisata - Budaya,Bandung,0,5.0,Tourism,No,-,"Monday, Tuesday","Wednesday, Thursday, Friday","Saturday, Sunday","Cloudy, Sunny",169,None,-6.8934327,107.6185513,08:00:00,17:00:00,Morning
Museum Pos Indonesia,Wisata - Budaya,Bandung,0,5.0,Tourism,No,-,"Monday, Tuesday","Wednesday, Thursday, Friday","Saturday, Sunday","Cloudy, Sunny",121,None,-6.902012999999998,107.6197787,10:00:00,18:00:00,Afternoon
Ciwangun Indah Camp Official,Wisata - Cagar Alam,Bandung,10000,5.0,Tourism,No,-,"Monday, Tuesday","Wednesday, Thursday, Friday","Saturday, Sunday",Sunny,61,None,-6.786939,107.5837331,10:00:00,20:00:00,Morning
Wot Batu,Wisata - Cagar Alam,Bandung,50000,5.0,Tourism,No,-,"Monday, Tuesday","Wednesday, Thursday, Friday","Saturday, Sunday",Sunny,130,None,-6.8597013,107.6360983,08:00:00,16:00:00,Morning
Curug Batu Templek,Wisata - Cagar Alam,Bandung,5000,5.0,Tourism,No,-,"Monday, Tuesday","Wednesday, Thursday, Friday","Saturday, Sunday",Sunny,85,None,-6.874363300000001,107.6844023,10:00:00,20:00:00,Afternoon
Gereja Katedral Santo Petrus Bandung,Wisata - Tempat Ibadah,Bandung,0,5.0,Tourism,No,-,"Monday, Tuesday","Wednesday, Thursday, Friday","Saturday, Sunday",Sunny,149,None,-6.9148394,107.6105511,08:00:00,16:00:00,Morning
Museum Mandala Wangsit Siliwangi,Wisata - Budaya,Bandung,0,5.0,Tourism,No,-,"Monday, Tuesday","Wednesday, Thursday, Friday","Saturday, Sunday","Cloudy, Sunny",138,None,-6.9173405,107.6112627,07:00:00,19:00:00,Afternoon
Caringin Tilu,Wisata - Cagar Alam,Bandung,0,5.0,Tourism,No,-,"Monday, Tuesday","Wednesday, Thursday, Friday","Saturday, Sunday",Sunny,111,None,-6.858046399999999,107.6647084,10:00:00,18:00:00,Morning
Panama Park 825,Wisata - Taman Hiburan,Bandung,50000,5.0,Tourism,No,-,"Monday, Tuesday","Wednesday, Thursday, Friday","Saturday, Sunday","Cloudy, Sunny, Rainy",65,None,-6.9119768,107.569674,08:00:00,16:00:00,Evening
Sudut Pandang Bandung,Wisata - Taman Hiburan,Bandung,50000,5.0,Tourism,No,-,"Monday, Tuesday","Wednesday, Thursday, Friday","Saturday, Sunday","Cloudy, Sunny, Rainy",114,None,-6.842363799999999,107.6232403,08:00:00,18:00:00,Morning
Bumi Perkemahan Batu Kuda,Wisata - Cagar Alam,Bandung,7500,5.0,Tourism,No,-,"Monday, Tuesday","Wednesday, Thursday, Friday","Saturday, Sunday",Sunny,107,None,-6.893217299999999,107.7448856,10:00:00,20:00:00,Morning
Bukit Bintang,Wisata - Cagar Alam,Bandung,25000,5.0,Tourism,No,-,"Monday, Tuesday","Wednesday, Thursday, Friday","Saturday, Sunday",Sunny,114,None,-6.8417795,107.6768585,08:00:00,16:00:00,Morning
Taman Vanda,Wisata - Taman Hiburan,Bandung,0,5.0,Tourism,No,-,"Monday, Tuesday","Wednesday, Thursday, Friday","Saturday, Sunday","Cloudy, Sunny, Rainy",146,None,-6.9140478,107.6101684,07:00:00,20:00:00,Evening
Taman Budaya Jawa Barat,Wisata - Budaya,Bandung,0,5.0,Tourism,No,-,"Monday, Tuesday","Wednesday, Thursday, Friday","Saturday, Sunday","Cloudy, Sunny",179,None,-6.870099,107.6164386,07:00:00,17:00:00,Afternoon
Curug Bugbrug,Wisata - Cagar Alam,Bandung,7500,5.0,Tourism,No,-,"Monday, Tuesday","Wednesday, Thursday, Friday","Saturday, Sunday",Sunny,67,None,-6.790388999999999,107.5777632,09:00:00,16:00:00,Afternoon
Babakan Siliwangi City Forest Path Bandung,Wisata - Cagar Alam,Bandung,0,5.0,Tourism,No,-,"Monday, Tuesday","Wednesday, Thursday, Friday","Saturday, Sunday",Sunny,65,None,-6.8853746,107.6111899,10:00:00,16:00:00,Morning
Curug Cipanas,Wisata - Cagar Alam,Bandung,20000,5.0,Tourism,No,-,"Monday, Tuesday","Wednesday, Thursday, Friday","Saturday, Sunday",Sunny,144,None,-6.7991958,107.5922088,07:00:00,20:00:00,Morning
Taman Jomblo,Wisata - Taman Hiburan,Bandung,10000,5.0,Tourism,No,-,"Monday, Tuesday","Wednesday, Thursday, Friday","Saturday, Sunday","Cloudy, Sunny, Rainy",164,None,-6.8980549,107.6094673,08:00:00,18:00:00,Morning
Peta Park,Wisata - Taman Hiburan,Bandung,15000,5.0,Tourism,No,-,"Monday, Tuesday","Wednesday, Thursday, Friday","Saturday, Sunday","Cloudy, Sunny, Rainy",170,None,-6.9317951,107.5883026,10:00:00,20:00:00,Evening
Masjid Daarut Tauhiid Bandung,Wisata - Tempat Ibadah,Bandung,0,5.0,Tourism,No,-,"Monday, Tuesday","Wednesday, Thursday, Friday","Saturday, Sunday",Sunny,88,None,-6.863526999999999,107.5899194,10:00:00,19:00:00,Morning
Masjid Agung Trans Studio Bandung,Wisata - Tempat Ibadah,Bandung,0,5.0,Tourism,No,-,"Monday, Tuesday","Wednesday, Thursday, Friday","Saturday, Sunday",Sunny,140,None,-6.925963500000001,107.6354278,09:00:00,16:00:00,Morning
Gereja Tiberias Indonesia Bandung,Wisata - Tempat Ibadah,Bandung,0,5.0,Tourism,No,-,"Monday, Tuesday","Wednesday, Thursday, Friday","Saturday, Sunday",Sunny,103,None,-6.9347698,107.6253513,08:00:00,18:00:00,Morning
Tektona Waterpark,Wisata - Taman Hiburan,Bandung,60000,5.0,Tourism,No,-,"Monday, Tuesday","Wednesday, Thursday, Friday","Saturday, Sunday","Cloudy, Sunny, Rainy",159,None,-7.009602199999999,107.6062161,09:00:00,19:00:00,Afternoon
Curug Cilengkrang,Wisata - Cagar Alam,Bandung,7500,4.0,Tourism,No,-,"Monday, Tuesday","Wednesday, Thursday, Friday","Saturday, Sunday",Sunny,167,None,-6.8908877,107.7307085,10:00:00,16:00:00,Afternoon
Jembatan Pasupati,Wisata - Taman Hiburan,Bandung,0,5.0,Tourism,No,-,"Monday, Tuesday","Wednesday, Thursday, Friday","Saturday, Sunday","Cloudy, Sunny, Rainy",179,None,-6.900098700000001,107.6046708,08:00:00,20:00:00,Evening
Pasar Baru,Wisata - Pusat Perbelanjaan,Bandung,0,5.0,Tourism,No,-,"Monday, Tuesday","Wednesday, Thursday, Friday","Saturday, Sunday",Sunny,117,None,-6.9177044,107.6036014,10:00:00,18:00:00,Morning
Taman Sejarah Bandung,Wisata - Budaya,Bandung,0,5.0,Tourism,No,-,"Monday, Tuesday","Wednesday, Thursday, Friday","Saturday, Sunday","Cloudy, Sunny",90,None,-6.9103086,107.6098619,08:00:00,18:00:00,Afternoon
Roemah Seni Sarasvati,Wisata - Budaya,Bandung,0,5.0,Tourism,No,-,"Monday, Tuesday","Wednesday, Thursday, Friday","Saturday, Sunday","Cloudy, Sunny",149,None,-6.9204173,107.5996425,10:00:00,17:00:00,Morning
Puspa Iptek Sundial,Wisata - Taman Hiburan,Bandung,25000,5.0,Tourism,No,-,"Monday, Tuesday","Wednesday, Thursday, Friday","Saturday, Sunday","Cloudy, Sunny, Rainy",145,None,-6.852207999999999,107.493882,08:00:00,20:00:00,Morning
Masjid Salman ITB,Wisata - Tempat Ibadah,Bandung,0,5.0,Tourism,No,-,"Monday, Tuesday","Wednesday, Thursday, Friday","Saturday, Sunday",Sunny,162,None,-6.893664299999999,107.611271,08:00:00,16:00:00,Morning
Curug Aseupan,Wisata - Cagar Alam,Bandung,10000,5.0,Tourism,No,-,"Monday, Tuesday","Wednesday, Thursday, Friday","Saturday, Sunday",Sunny,84,None,-6.7875652,107.5822844,10:00:00,20:00:00,Afternoon
Museum Pendidikan Nasional,Wisata - Budaya,Bandung,5000,5.0,Tourism,No,-,"Monday, Tuesday","Wednesday, Thursday, Friday","Saturday, Sunday","Cloudy, Sunny",141,None,-6.859747400000001,107.5941693,09:00:00,19:00:00,Afternoon
Water Park Bandung Indah,Wisata - Taman Hiburan,Bandung,50000,4.0,Tourism,No,-,"Monday, Tuesday","Wednesday, Thursday, Friday","Saturday, Sunday","Cloudy, Sunny, Rainy",123,None,-6.980580700000001,107.5856567,09:00:00,20:00:00,Morning
Curug Anom,Wisata - Cagar Alam,Bandung,0,5.0,Tourism,No,-,"Monday, Tuesday","Wednesday, Thursday, Friday","Saturday, Sunday",Sunny,160,None,-6.811600899999998,107.5695213,07:00:00,17:00:00,Morning
Taman Badak,Wisata - Taman Hiburan,Bandung,0,5.0,Tourism,No,-,"Monday, Tuesday","Wednesday, Thursday, Friday","Saturday, Sunday","Cloudy, Sunny, Rainy",69,None,-6.9132752,107.6094908,08:00:00,20:00:00,Morning
Taman Film,Wisata - Budaya,Bandung,0,5.0,Tourism,No,-,"Monday, Tuesday","Wednesday, Thursday, Friday","Saturday, Sunday","Cloudy, Sunny",139,None,-6.8986869,107.6077451,10:00:00,16:00:00,Afternoon
Museum Nike Ardilla,Wisata - Budaya,Bandung,0,5.0,Tourism,No,-,"Monday, Tuesday","Wednesday, Thursday, Friday","Saturday, Sunday","Cloudy, Sunny",68,None,-6.9406015,107.6725445,07:00:00,18:00:00,Morning
Batununggal Indah Club,Wisata - Taman Hiburan,Bandung,70000,5.0,Tourism,No,-,"Monday, Tuesday","Wednesday, Thursday, Friday","Saturday, Sunday","Cloudy, Sunny, Rainy",131,None,-6.963229999999999,107.626416,10:00:00,19:00:00,Afternoon
Mountain View Golf Club,Wisata - Cagar Alam,Bandung,375000,5.0,Tourism,No,-,"Monday, Tuesday","Wednesday, Thursday, Friday","Saturday, Sunday",Sunny,159,None,-6.8629384,107.6482191,07:00:00,19:00:00,Afternoon
Gunung Lalakon,Wisata - Cagar Alam,Bandung,0,5.0,Tourism,No,-,"Monday, Tuesday","Wednesday, Thursday, Friday","Saturday, Sunday",Sunny,145,None,-6.958055600000001,107.5205556,08:00:00,19:00:00,Morning
Sendang Geulis Kahuripan,Wisata - Cagar Alam,Bandung,10000,5.0,Tourism,No,-,"Monday, Tuesday","Wednesday, Thursday, Friday","Saturday, Sunday",Sunny,89,None,-6.7495268,107.478658,07:00:00,18:00:00,Afternoon
Sanghyang Heuleut,Wisata - Cagar Alam,Bandung,10000,5.0,Tourism,No,-,"Monday, Tuesday","Wednesday, Thursday, Friday","Saturday, Sunday",Sunny,161,None,-6.876513099999999,107.3422183,10:00:00,18:00:00,Morning
Lereng Anteng Panoramic Coffee Place,Wisata - Cagar Alam,Bandung,50000,5.0,Tourism,No,-,"Monday, Tuesday","Wednesday, Thursday, Friday","Saturday, Sunday",Sunny,111,None,-6.842535,107.622698,07:00:00,20:00:00,Morning
Masjid Pusdai,Wisata - Tempat Ibadah,Bandung,0,5.0,Tourism,No,-,"Monday, Tuesday","Wednesday, Thursday, Friday","Saturday, Sunday",Sunny,73,None,-6.9000672,107.62587,07:00:00,19:00:00,Morning
Masjid Al-Imtizaj,Wisata - Tempat Ibadah,Bandung,0,5.0,Tourism,No,-,"Monday, Tuesday","Wednesday, Thursday, Friday","Saturday, Sunday",Sunny,91,None,-6.919424999999999,107.6078639,09:00:00,17:00:00,Morning
Situ Cileunca,Wisata - Cagar Alam,Bandung,2500,5.0,Tourism,No,-,"Monday, Tuesday","Wednesday, Thursday, Friday","Saturday, Sunday",Sunny,118,None,-7.192328099999997,107.5510012,07:00:00,18:00:00,Morning
Sunrise Point Cukul,Wisata - Cagar Alam,Bandung,10000,5.0,Tourism,No,-,"Monday, Tuesday","Wednesday, Thursday, Friday","Saturday, Sunday",Sunny,93,None,-7.233689000000002,107.5342933,09:00:00,20:00:00,Afternoon
Sungai Palayangan,Wisata - Cagar Alam,Bandung,150000,5.0,Tourism,No,-,"Monday, Tuesday","Wednesday, Thursday, Friday","Saturday, Sunday",Sunny,140,None,-7.1965023,107.5454594,07:00:00,19:00:00,Afternoon
Perkebunan Teh Malabar,Wisata - Cagar Alam,Bandung,5000,5.0,Tourism,No,-,"Monday, Tuesday","Wednesday, Thursday, Friday","Saturday, Sunday",Sunny,97,None,-7.2274463,107.6050805,07:00:00,20:00:00,Morning
Pemandian Air Panas Ciater,Wisata - Cagar Alam,Bandung,15000,5.0,Tourism,No,-,"Monday, Tuesday","Wednesday, Thursday, Friday","Saturday, Sunday",Sunny,134,None,-6.738085299999999,107.6566092,09:00:00,19:00:00,Afternoon
Observatorium Bosscha,Wisata - Cagar Alam,Bandung,25000,5.0,Tourism,No,-,"Monday, Tuesday","Wednesday, Thursday, Friday","Saturday, Sunday",Sunny,147,None,-6.8246311,107.6171106,09:00:00,18:00:00,Afternoon
Taman Bunga Cihideung,Wisata - Cagar Alam,Bandung,0,5.0,Tourism,No,-,"Monday, Tuesday","Wednesday, Thursday, Friday","Saturday, Sunday",Sunny,115,None,-6.8038883,107.5866313,08:00:00,18:00:00,Morning
The Lodge Maribaya,Wisata - Cagar Alam,Bandung,25000,5.0,Tourism,No,-,"Monday, Tuesday","Wednesday, Thursday, Friday","Saturday, Sunday",Sunny,81,None,-6.829411199999999,107.6874666,10:00:00,17:00:00,Morning
Taman Hutan Raya Ir. H. Juanda,Wisata - Cagar Alam,Bandung,11000,5.0,Tourism,No,-,"Monday, Tuesday","Wednesday, Thursday, Friday","Saturday, Sunday",Sunny,118,None,-6.8585841,107.6306089,09:00:00,17:00:00,Morning
Taman Begonia,Wisata - Cagar Alam,Bandung,10000,5.0,Tourism,No,-,"Monday, Tuesday","Wednesday, Thursday, Friday","Saturday, Sunday",Sunny,176,None,-6.8260163,107.6383564,07:00:00,18:00:00,Morning
Tafso Barn,Wisata - Cagar Alam,Bandung,0,5.0,Tourism,No,-,"Monday, Tuesday","Wednesday, Thursday, Friday","Saturday, Sunday",Sunny,170,None,-6.8426446,107.6228408,09:00:00,18:00:00,Morning
Curug Luhur Waterfall,Wisata - Cagar Alam,Bandung,5000,5.0,Tourism,No,-,"Monday, Tuesday","Wednesday, Thursday, Friday","Saturday, Sunday",Sunny,84,None,-6.8131767,107.7136367,08:00:00,17:00:00,Afternoon
Curug Malela,Wisata - Cagar Alam,Bandung,10000,5.0,Tourism,No,-,"Monday, Tuesday","Wednesday, Thursday, Friday","Saturday, Sunday",Sunny,176,None,-7.0182386,107.2072145,07:00:00,18:00:00,Morning
Curug Cimahi,Wisata - Cagar Alam,Bandung,15000,5.0,Tourism,No,-,"Monday, Tuesday","Wednesday, Thursday, Friday","Saturday, Sunday",Sunny,101,None,-6.797738300000002,107.5783691,08:00:00,19:00:00,Afternoon
Situ Patenggang,Wisata - Cagar Alam,Bandung,20000,5.0,Tourism,No,-,"Monday, Tuesday","Wednesday, Thursday, Friday","Saturday, Sunday",Sunny,152,None,-7.1669649,107.3575344,10:00:00,20:00:00,Afternoon
Kawah Rengganis Cibuni,Wisata - Cagar Alam,Bandung,5000,5.0,Tourism,No,-,"Monday, Tuesday","Wednesday, Thursday, Friday","Saturday, Sunday",Sunny,147,None,-7.172412599999999,107.3766656,09:00:00,20:00:00,Morning
Pemandian Air Panas Cimanggu,Wisata - Cagar Alam,Bandung,23000,5.0,Tourism,No,-,"Monday, Tuesday","Wednesday, Thursday, Friday","Saturday, Sunday",Sunny,98,None,-7.147152899999998,107.3901424,10:00:00,17:00:00,Afternoon
Glamping Lakeside Rancabali,Wisata - Taman Hiburan,Bandung,30000,5.0,Tourism,No,-,"Monday, Tuesday","Wednesday, Thursday, Friday","Saturday, Sunday","Cloudy, Sunny, Rainy",71,None,-7.167054900000001,107.3540784,10:00:00,20:00:00,Morning
Bukit Jamur,Wisata - Cagar Alam,Bandung,0,5.0,Tourism,No,-,"Monday, Tuesday","Wednesday, Thursday, Friday","Saturday, Sunday",Sunny,155,None,-7.195110199999998,107.4312811,08:00:00,20:00:00,Morning
Kebun Tanaman Obat Sari Alam,Wisata - Cagar Alam,Bandung,0,5.0,Tourism,No,-,"Monday, Tuesday","Wednesday, Thursday, Friday","Saturday, Sunday",Sunny,133,None,-6.601320999999999,106.632734,07:00:00,20:00:00,Morning
Happyfarm Ciwidey,Wisata - Cagar Alam,Bandung,15000,5.0,Tourism,No,-,"Monday, Tuesday","Wednesday, Thursday, Friday","Saturday, Sunday",Sunny,123,None,-7.1147877,107.4380865,07:00:00,20:00:00,Morning
Saung Angklung Mang Udjo,Wisata - Budaya,Bandung,75000,5.0,Tourism,No,-,"Monday, Tuesday","Wednesday, Thursday, Friday","Saturday, Sunday","Cloudy, Sunny",163,None,-6.897136199999999,107.6558466,09:00:00,18:00:00,Morning
Taman Kupu-Kupu Cihanjuang,Wisata - Cagar Alam,Bandung,10000,4.0,Tourism,No,-,"Monday, Tuesday","Wednesday, Thursday, Friday","Saturday, Sunday",Sunny,60,None,-6.8590047,107.568779,10:00:00,20:00:00,Afternoon
Taman Miniatur Kereta Api,Wisata - Taman Hiburan,Bandung,15000,5.0,Tourism,No,-,"Monday, Tuesday","Wednesday, Thursday, Friday","Saturday, Sunday","Cloudy, Sunny, Rainy",101,None,-6.817327,107.61794,10:00:00,18:00:00,Morning
Gua Pawon,Wisata - Cagar Alam,Bandung,10000,5.0,Tourism,No,-,"Monday, Tuesday","Wednesday, Thursday, Friday","Saturday, Sunday",Sunny,148,None,-6.8231833,107.4371655,10:00:00,16:00:00,Morning
Bukit Gantole Cililin,Wisata - Cagar Alam,Bandung,0,5.0,Tourism,No,-,"Monday, Tuesday","Wednesday, Thursday, Friday","Saturday, Sunday",Sunny,157,None,-6.9588812,107.4713147,08:00:00,16:00:00,Morning
Bandros City Tour,Wisata - Budaya,Bandung,40000,5.0,Tourism,No,-,"Monday, Tuesday","Wednesday, Thursday, Friday","Saturday, Sunday","Cloudy, Sunny",115,None,-6.922081599999999,107.6073182,08:00:00,17:00:00,Morning
Kyotoku Floating Market,Wisata - Budaya,Bandung,175000,5.0,Tourism,No,-,"Monday, Tuesday","Wednesday, Thursday, Friday","Saturday, Sunday","Cloudy, Sunny",163,None,-6.819874999999999,107.618707,07:00:00,17:00:00,Morning
Rainbow Garden,Wisata - Cagar Alam,Bandung,20000,5.0,Tourism,No,-,"Monday, Tuesday","Wednesday, Thursday, Friday","Saturday, Sunday",Sunny,135,None,-6.8179514,107.618914,09:00:00,20:00:00,Morning
Kota Mini,Wisata - Taman Hiburan,Bandung,20000,5.0,Tourism,No,-,"Monday, Tuesday","Wednesday, Thursday, Friday","Saturday, Sunday","Cloudy, Sunny, Rainy",123,None,-6.818688799999999,107.6169403,09:00:00,20:00:00,Morning
Chingu Cafe Little Seoul,Wisata - Taman Hiburan,Bandung,50000,5.0,Tourism,No,-,"Monday, Tuesday","Wednesday, Thursday, Friday","Saturday, Sunday","Cloudy, Sunny, Rainy",134,None,-6.901224099999999,107.6099853,07:00:00,20:00:00,Afternoon
Candi Gedong Songo,Wisata - Budaya,Semarang,10000,5.0,Tourism,No,-,"Monday, Tuesday","Wednesday, Thursday, Friday","Saturday, Sunday","Cloudy, Sunny",117,None,-7.209886700000002,110.3421119,07:00:00,17:00:00,Morning
Grand Maerakaca,Wisata - Taman Hiburan,Semarang,15000,5.0,Tourism,No,-,"Monday, Tuesday","Wednesday, Thursday, Friday","Saturday, Sunday","Cloudy, Sunny, Rainy",101,None,-6.9605225,110.3863941,08:00:00,19:00:00,Evening
Kampung Pelangi,Wisata - Taman Hiburan,Semarang,3000,5.0,Tourism,No,-,"Monday, Tuesday","Wednesday, Thursday, Friday","Saturday, Sunday","Cloudy, Sunny, Rainy",112,None,-6.988881200000001,110.4083781,10:00:00,19:00:00,Afternoon
Lawang Sewu,Wisata - Budaya,Semarang,10000,5.0,Tourism,No,-,"Monday, Tuesday","Wednesday, Thursday, Friday","Saturday, Sunday","Cloudy, Sunny",83,None,-6.9839099,110.4104342,10:00:00,18:00:00,Morning
Sam Poo Kong Temple,Wisata - Budaya,Semarang,35000,5.0,Tourism,No,-,"Monday, Tuesday","Wednesday, Thursday, Friday","Saturday, Sunday","Cloudy, Sunny",156,None,-6.996236599999999,110.398122,07:00:00,17:00:00,Afternoon
Desa Wisata Lembah Kalipancur,Wisata - Taman Hiburan,Semarang,0,5.0,Tourism,No,-,"Monday, Tuesday","Wednesday, Thursday, Friday","Saturday, Sunday","Cloudy, Sunny, Rainy",117,None,-7.0205245,110.3754605,08:00:00,18:00:00,Morning
Hutan Wisata Tinjomoyo Semarang,Wisata - Cagar Alam,Semarang,3000,5.0,Tourism,No,-,"Monday, Tuesday","Wednesday, Thursday, Friday","Saturday, Sunday",Sunny,164,None,-7.0296837,110.3999611,08:00:00,19:00:00,Morning
Taman Kasmaran,Wisata - Taman Hiburan,Semarang,3000,5.0,Tourism,No,-,"Monday, Tuesday","Wednesday, Thursday, Friday","Saturday, Sunday","Cloudy, Sunny, Rainy",64,None,-6.9909404,110.4065932,10:00:00,17:00:00,Morning
Pantai Baruna,Wisata - Bahari,Semarang,3000,4.0,Tourism,No,-,"Monday, Tuesday","Wednesday, Thursday, Friday","Saturday, Sunday",Sunny,175,None,-6.945105199999999,110.3982398,08:00:00,18:00:00,Morning
Pantai Marina,Wisata - Bahari,Semarang,3000,5.0,Tourism,No,-,"Monday, Tuesday","Wednesday, Thursday, Friday","Saturday, Sunday",Sunny,166,None,-6.948877,110.3893285,07:00:00,18:00:00,Morning
Kampoeng Djadhoel Semarang,Wisata - Budaya,Semarang,10000,5.0,Tourism,No,-,"Monday, Tuesday","Wednesday, Thursday, Friday","Saturday, Sunday","Cloudy, Sunny",81,None,-6.968773100000001,110.4319505,09:00:00,20:00:00,Morning
Indonesia Kaya Park,Wisata - Taman Hiburan,Semarang,0,5.0,Tourism,No,-,"Monday, Tuesday","Wednesday, Thursday, Friday","Saturday, Sunday","Cloudy, Sunny, Rainy",90,None,-6.992350699999998,110.4201162,08:00:00,18:00:00,Morning
Taman Pandanaran,Wisata - Taman Hiburan,Semarang,0,5.0,Tourism,No,-,"Monday, Tuesday","Wednesday, Thursday, Friday","Saturday, Sunday","Cloudy, Sunny, Rainy",145,None,-6.987793600000001,110.4172262,07:00:00,20:00:00,Afternoon
Pura Giri Natha,Wisata - Budaya,Semarang,20000,5.0,Tourism,No,-,"Monday, Tuesday","Wednesday, Thursday, Friday","Saturday, Sunday","Cloudy, Sunny",91,None,-6.998475900000001,110.4106468,07:00:00,20:00:00,Morning
Wisata Mangrove Tapak,Wisata - Cagar Alam,Semarang,5000,5.0,Tourism,No,-,"Monday, Tuesday","Wednesday, Thursday, Friday","Saturday, Sunday",Sunny,97,None,-6.968561800000001,110.3459696,08:00:00,19:00:00,Morning
Pantai Cipta,Wisata - Bahari,Semarang,5000,4.0,Tourism,No,-,"Monday, Tuesday","Wednesday, Thursday, Friday","Saturday, Sunday",Sunny,97,None,-6.9486402,110.4102923,07:00:00,20:00:00,Evening
Old City 3D Trick Art Museum,Wisata - Budaya,Semarang,50000,5.0,Tourism,No,-,"Monday, Tuesday","Wednesday, Thursday, Friday","Saturday, Sunday","Cloudy, Sunny",74,None,-6.968406400000001,110.4261995,10:00:00,16:00:00,Morning
GPIB Immanuel Semarang (Gereja Blenduk),Wisata - Tempat Ibadah,Semarang,0,5.0,Tourism,No,-,"Monday, Tuesday","Wednesday, Thursday, Friday","Saturday, Sunday",Sunny,113,None,-6.968348799999999,110.4274767,10:00:00,16:00:00,Morning
Taman Srigunting,Wisata - Taman Hiburan,Semarang,0,5.0,Tourism,No,-,"Monday, Tuesday","Wednesday, Thursday, Friday","Saturday, Sunday","Cloudy, Sunny, Rainy",150,None,-6.9681728,110.4278262,09:00:00,18:00:00,Morning
Semarang Contemporary Art Gallery,Wisata - Budaya,Semarang,10000,5.0,Tourism,No,-,"Monday, Tuesday","Wednesday, Thursday, Friday","Saturday, Sunday","Cloudy, Sunny",151,None,-6.967499999999999,110.4282,07:00:00,16:00:00,Afternoon
Umbul Sidomukti,Wisata - Cagar Alam,Semarang,75000,5.0,Tourism,No,-,"Monday, Tuesday","Wednesday, Thursday, Friday","Saturday, Sunday",Sunny,154,None,-7.1945903,110.3733583,09:00:00,19:00:00,Morning
Saloka Theme Park,Wisata - Taman Hiburan,Semarang,150000,5.0,Tourism,No,-,"Monday, Tuesday","Wednesday, Thursday, Friday","Saturday, Sunday","Cloudy, Sunny, Rainy",120,None,-7.280726200000001,110.4595539,09:00:00,17:00:00,Afternoon
Wisata Alam Wana Wisata Penggaron,Wisata - Cagar Alam,Semarang,10000,5.0,Tourism,No,-,"Monday, Tuesday","Wednesday, Thursday, Friday","Saturday, Sunday",Sunny,70,None,-7.115796899999999,110.4217966,08:00:00,16:00:00,Morning
Masjid Kapal Semarang,Wisata - Tempat Ibadah,Semarang,0,5.0,Tourism,No,-,"Monday, Tuesday","Wednesday, Thursday, Friday","Saturday, Sunday",Sunny,165,None,-7.018778199999999,110.2937134,09:00:00,19:00:00,Morning
Taman Bunga Celosia,Wisata - Cagar Alam,Semarang,25000,5.0,Tourism,No,-,"Monday, Tuesday","Wednesday, Thursday, Friday","Saturday, Sunday",Sunny,113,None,-7.225504099999998,110.3463166,09:00:00,19:00:00,Morning
Air Terjun Kali Pancur,Wisata - Cagar Alam,Semarang,5000,5.0,Tourism,No,-,"Monday, Tuesday","Wednesday, Thursday, Friday","Saturday, Sunday",Sunny,62,None,-7.358096300000001,110.4210681,08:00:00,17:00:00,Afternoon
Wisata Kampung Krisan Clapar,Wisata - Taman Hiburan,Semarang,10000,5.0,Tourism,No,-,"Monday, Tuesday","Wednesday, Thursday, Friday","Saturday, Sunday","Cloudy, Sunny, Rainy",122,None,-7.214158199999999,110.3769541,10:00:00,17:00:00,Evening
Danau Rawa Pening,Wisata - Cagar Alam,Semarang,15000,5.0,Tourism,No,-,"Monday, Tuesday","Wednesday, Thursday, Friday","Saturday, Sunday",Sunny,110,None,-7.2854929,110.4321671,09:00:00,16:00:00,Afternoon
Pantai Maron,Wisata - Bahari,Semarang,5000,5.0,Tourism,No,-,"Monday, Tuesday","Wednesday, Thursday, Friday","Saturday, Sunday",Sunny,153,None,-6.9545687,110.3600951,10:00:00,19:00:00,Afternoon
Water Blaster Bukit Candi Golf,Wisata - Taman Hiburan,Semarang,80000,5.0,Tourism,No,-,"Monday, Tuesday","Wednesday, Thursday, Friday","Saturday, Sunday","Cloudy, Sunny, Rainy",101,None,-7.0218894,110.4383345,10:00:00,18:00:00,Evening
Waduk Jatibarang,Wisata - Cagar Alam,Semarang,2500,5.0,Tourism,No,-,"Monday, Tuesday","Wednesday, Thursday, Friday","Saturday, Sunday",Sunny,169,None,-7.0370499,110.3477586,09:00:00,19:00:00,Afternoon
Tirto Argo Siwarak,Wisata - Taman Hiburan,Semarang,20000,5.0,Tourism,No,-,"Monday, Tuesday","Wednesday, Thursday, Friday","Saturday, Sunday","Cloudy, Sunny, Rainy",72,None,-7.132106000000001,110.394523,08:00:00,20:00:00,Morning
Wisata Lereng Kelir,Wisata - Cagar Alam,Semarang,7000,5.0,Tourism,No,-,"Monday, Tuesday","Wednesday, Thursday, Friday","Saturday, Sunday",Sunny,61,None,-7.3126613,110.3746785,09:00:00,17:00:00,Morning
Kampoeng Rawa,Wisata - Cagar Alam,Semarang,3000,5.0,Tourism,No,-,"Monday, Tuesday","Wednesday, Thursday, Friday","Saturday, Sunday",Sunny,163,None,-7.267539000000001,110.418076,10:00:00,20:00:00,Afternoon
Monumen Palagan Ambarawa,Wisata - Budaya,Semarang,7500,5.0,Tourism,No,-,"Monday, Tuesday","Wednesday, Thursday, Friday","Saturday, Sunday","Cloudy, Sunny",153,None,-7.259886099999998,110.4025602,08:00:00,18:00:00,Afternoon
Benteng Pendem,Wisata - Budaya,Semarang,5000,5.0,Tourism,No,-,"Monday, Tuesday","Wednesday, Thursday, Friday","Saturday, Sunday","Cloudy, Sunny",157,None,-7.2706462,110.4103291,07:00:00,20:00:00,Afternoon
Wisata Eling Bening,Wisata - Cagar Alam,Semarang,25000,5.0,Tourism,No,-,"Monday, Tuesday","Wednesday, Thursday, Friday","Saturday, Sunday",Sunny,74,None,-7.253109599999999,110.4264512,07:00:00,17:00:00,Morning
Gua Maria Kerep Ambarawa,Wisata - Cagar Alam,Semarang,2000,5.0,Tourism,No,-,"Monday, Tuesday","Wednesday, Thursday, Friday","Saturday, Sunday",Sunny,86,None,-7.255236400000001,110.3991897,09:00:00,17:00:00,Afternoon
Museum Kereta Ambarawa,Wisata - Budaya,Semarang,10000,5.0,Tourism,No,-,"Monday, Tuesday","Wednesday, Thursday, Friday","Saturday, Sunday","Cloudy, Sunny",83,None,-7.264598899999997,110.4046017,08:00:00,16:00:00,Afternoon
Hutan Pinus Kayon,Wisata - Cagar Alam,Semarang,6000,5.0,Tourism,No,-,"Monday, Tuesday","Wednesday, Thursday, Friday","Saturday, Sunday",Sunny,98,None,-7.395606000000001,110.4517727,09:00:00,18:00:00,Morning
Kota Lama Semarang,Wisata - Budaya,Semarang,0,5.0,Tourism,No,-,"Monday, Tuesday","Wednesday, Thursday, Friday","Saturday, Sunday","Cloudy, Sunny",141,None,-6.9681399,110.4278611,07:00:00,17:00:00,Afternoon
Semarang Chinatown,Wisata - Budaya,Semarang,30000,5.0,Tourism,No,-,"Monday, Tuesday","Wednesday, Thursday, Friday","Saturday, Sunday","Cloudy, Sunny",110,None,-6.974992299999999,110.424954,07:00:00,17:00:00,Afternoon
La Kana Chapel,Wisata - Taman Hiburan,Semarang,35000,5.0,Tourism,No,-,"Monday, Tuesday","Wednesday, Thursday, Friday","Saturday, Sunday","Cloudy, Sunny, Rainy",111,None,-7.215692300000001,110.3649392,10:00:00,16:00:00,Afternoon
Jembatan Biru Ambarawa,Wisata - Taman Hiburan,Semarang,0,5.0,Tourism,No,-,"Monday, Tuesday","Wednesday, Thursday, Friday","Saturday, Sunday","Cloudy, Sunny, Rainy",109,None,-7.267820100000002,110.4483217,09:00:00,20:00:00,Afternoon
Goa Rong,Wisata - Cagar Alam,Semarang,5000,5.0,Tourism,No,-,"Monday, Tuesday","Wednesday, Thursday, Friday","Saturday, Sunday",Sunny,103,None,-7.2721621,110.4698457,09:00:00,20:00:00,Morning
Masjid Agung Ungaran,Wisata - Tempat Ibadah,Semarang,0,5.0,Tourism,No,-,"Monday, Tuesday","Wednesday, Thursday, Friday","Saturday, Sunday",Sunny,102,None,-7.135070499999999,110.4088131,07:00:00,20:00:00,Morning
Tugu Muda Semarang,Wisata - Budaya,Semarang,0,5.0,Tourism,No,-,"Monday, Tuesday","Wednesday, Thursday, Friday","Saturday, Sunday","Cloudy, Sunny",160,None,-6.9843485,110.4093207,07:00:00,20:00:00,Morning
Kampoeng Kopi Banaran,Wisata - Taman Hiburan,Semarang,200000,5.0,Tourism,No,-,"Monday, Tuesday","Wednesday, Thursday, Friday","Saturday, Sunday","Cloudy, Sunny, Rainy",84,None,-7.2538882,110.4418764,07:00:00,17:00:00,Morning
Taman Tabanas,Wisata - Taman Hiburan,Semarang,0,5.0,Tourism,No,-,"Monday, Tuesday","Wednesday, Thursday, Friday","Saturday, Sunday","Cloudy, Sunny, Rainy",90,None,-7.038803199999999,110.4215576,07:00:00,18:00:00,Evening
Kampung Tematik Jawi,Wisata - Budaya,Semarang,0,5.0,Tourism,No,-,"Monday, Tuesday","Wednesday, Thursday, Friday","Saturday, Sunday","Cloudy, Sunny",81,None,-7.029097399999999,110.3775382,09:00:00,20:00:00,Morning
Kampung Batik Gedong Semarang,Wisata - Budaya,Semarang,0,5.0,Tourism,No,-,"Monday, Tuesday","Wednesday, Thursday, Friday","Saturday, Sunday","Cloudy, Sunny",110,None,-6.968882100000001,110.4318692,07:00:00,20:00:00,Afternoon
Air Terjun Semirang,Wisata - Cagar Alam,Semarang,9000,5.0,Tourism,No,-,"Monday, Tuesday","Wednesday, Thursday, Friday","Saturday, Sunday",Sunny,168,None,-7.166297100000002,110.381068,09:00:00,18:00:00,Morning
Obyek Wisata Goa Kreo,Wisata - Cagar Alam,Semarang,5500,5.0,Tourism,No,-,"Monday, Tuesday","Wednesday, Thursday, Friday","Saturday, Sunday",Sunny,72,None,-7.0372113,110.3476164,07:00:00,18:00:00,Morning
Watu Gunung Ungaran,Wisata - Cagar Alam,Semarang,25000,5.0,Tourism,No,-,"Monday, Tuesday","Wednesday, Thursday, Friday","Saturday, Sunday",Sunny,72,None,-7.129806599999999,110.388832,07:00:00,19:00:00,Morning
Brown Canyon,Wisata - Cagar Alam,Semarang,0,5.0,Tourism,No,-,"Monday, Tuesday","Wednesday, Thursday, Friday","Saturday, Sunday",Sunny,156,None,-7.0565164,110.4862531,10:00:00,19:00:00,Afternoon
Durian Gardens and Tourism Education Watu Simbar,Wisata - Cagar Alam,Semarang,5000,5.0,Tourism,No,-,"Monday, Tuesday","Wednesday, Thursday, Friday","Saturday, Sunday",Sunny,102,None,-7.096707899999999,110.3900517,07:00:00,17:00:00,Morning
Flower Farm Setiya Aji,Wisata - Cagar Alam,Semarang,7500,5.0,Tourism,No,-,"Monday, Tuesday","Wednesday, Thursday, Friday","Saturday, Sunday",Sunny,158,None,-7.2241813,110.3782661,07:00:00,18:00:00,Morning
Ekowisata Mangrove Wonorejo,Wisata - Cagar Alam,Surabaya,0,5.0,Tourism,No,-,"Monday, Tuesday","Wednesday, Thursday, Friday","Saturday, Sunday",Sunny,86,None,-7.308648199999999,112.8216622,09:00:00,17:00:00,Morning
Taman Harmoni Keputih,Wisata - Cagar Alam,Surabaya,0,5.0,Tourism,No,-,"Monday, Tuesday","Wednesday, Thursday, Friday","Saturday, Sunday",Sunny,115,None,-7.2952211,112.8035603,10:00:00,20:00:00,Morning
Air Mancur Menari,Wisata - Taman Hiburan,Surabaya,35000,5.0,Tourism,No,-,"Monday, Tuesday","Wednesday, Thursday, Friday","Saturday, Sunday","Cloudy, Sunny, Rainy",116,None,-7.2356933,112.7955234,09:00:00,18:00:00,Evening
Taman Prestasi,Wisata - Taman Hiburan,Surabaya,0,5.0,Tourism,No,-,"Monday, Tuesday","Wednesday, Thursday, Friday","Saturday, Sunday","Cloudy, Sunny, Rainy",161,None,-7.2614722,112.7428284,08:00:00,19:00:00,Evening
Monumen Kapal Selam,Wisata - Budaya,Surabaya,15000,5.0,Tourism,No,-,"Monday, Tuesday","Wednesday, Thursday, Friday","Saturday, Sunday","Cloudy, Sunny",82,None,-7.2654304,112.7503052,07:00:00,17:00:00,Morning
Taman Kunang-Kunang,Wisata - Taman Hiburan,Surabaya,0,5.0,Tourism,No,-,"Monday, Tuesday","Wednesday, Thursday, Friday","Saturday, Sunday","Cloudy, Sunny, Rainy",72,None,-7.318220199999999,112.7842405,09:00:00,19:00:00,Morning
Taman Buah Surabaya,Wisata - Taman Hiburan,Surabaya,0,5.0,Tourism,No,-,"Monday, Tuesday","Wednesday, Thursday, Friday","Saturday, Sunday","Cloudy, Sunny, Rainy",106,None,-7.266213899999999,112.795281,09:00:00,20:00:00,Afternoon
Taman Pelangi,Wisata - Taman Hiburan,Surabaya,0,5.0,Tourism,No,-,"Monday, Tuesday","Wednesday, Thursday, Friday","Saturday, Sunday","Cloudy, Sunny, Rainy",156,None,-7.3275604,112.7312242,10:00:00,17:00:00,Morning
Hutan Bambu Keputih,Wisata - Cagar Alam,Surabaya,0,5.0,Tourism,No,-,"Monday, Tuesday","Wednesday, Thursday, Friday","Saturday, Sunday",Sunny,75,None,-7.294190899999999,112.8017238,08:00:00,18:00:00,Afternoon
Taman Keputran,Wisata - Taman Hiburan,Surabaya,0,5.0,Tourism,No,-,"Monday, Tuesday","Wednesday, Thursday, Friday","Saturday, Sunday","Cloudy, Sunny, Rainy",110,None,-7.2732153,112.744102,09:00:00,18:00:00,Morning
Food Junction Grand Pakuwon,Wisata - Pusat Perbelanjaan,Surabaya,0,5.0,Tourism,No,-,"Monday, Tuesday","Wednesday, Thursday, Friday","Saturday, Sunday",Sunny,75,None,-7.251022000000003,112.6620053,07:00:00,20:00:00,Afternoon
Taman Barunawati,Wisata - Taman Hiburan,Surabaya,0,5.0,Tourism,No,-,"Monday, Tuesday","Wednesday, Thursday, Friday","Saturday, Sunday","Cloudy, Sunny, Rainy",85,None,-7.222055899999998,112.7319967,09:00:00,19:00:00,Morning
Kenjeran Park,Wisata - Taman Hiburan,Surabaya,35000,5.0,Tourism,No,-,"Monday, Tuesday","Wednesday, Thursday, Friday","Saturday, Sunday","Cloudy, Sunny, Rainy",119,None,-7.252296400000001,112.7966952,09:00:00,19:00:00,Afternoon
Surabaya North Quay,Wisata - Taman Hiburan,Surabaya,50000,5.0,Tourism,No,-,"Monday, Tuesday","Wednesday, Thursday, Friday","Saturday, Sunday","Cloudy, Sunny, Rainy",95,None,-7.1968193,112.7324578,07:00:00,20:00:00,Afternoon
Kebun Bibit Wonorejo,Wisata - Cagar Alam,Surabaya,0,5.0,Tourism,No,-,"Monday, Tuesday","Wednesday, Thursday, Friday","Saturday, Sunday",Sunny,175,None,-7.312365499999999,112.7889021,08:00:00,19:00:00,Morning
Taman Ekspresi Dan Perpustakaan,Wisata - Taman Hiburan,Surabaya,0,5.0,Tourism,No,-,"Monday, Tuesday","Wednesday, Thursday, Friday","Saturday, Sunday","Cloudy, Sunny, Rainy",72,None,-7.2573072,112.7437199,08:00:00,17:00:00,Evening
Kebun Binatang Surabaya,Wisata - Cagar Alam,Surabaya,15000,5.0,Tourism,No,-,"Monday, Tuesday","Wednesday, Thursday, Friday","Saturday, Sunday",Sunny,103,None,-7.295954599999999,112.7366094,10:00:00,19:00:00,Morning
Rumah Batik,Wisata - Budaya,Surabaya,0,5.0,Tourism,No,-,"Monday, Tuesday","Wednesday, Thursday, Friday","Saturday, Sunday","Cloudy, Sunny",86,None,-7.278735999999999,112.718453,08:00:00,17:00:00,Afternoon
Ciputra Waterpark,Wisata - Taman Hiburan,Surabaya,95000,5.0,Tourism,No,-,"Monday, Tuesday","Wednesday, Thursday, Friday","Saturday, Sunday","Cloudy, Sunny, Rainy",69,None,-7.2861707,112.6333338,07:00:00,16:00:00,Afternoon
Masjid Muhammad Cheng Hoo,Wisata - Tempat Ibadah,Surabaya,0,5.0,Tourism,No,-,"Monday, Tuesday","Wednesday, Thursday, Friday","Saturday, Sunday",Sunny,108,None,-7.252275399999999,112.7468796,09:00:00,20:00:00,Morning
Masjid Nasional Al-Akbar,Wisata - Tempat Ibadah,Surabaya,0,5.0,Tourism,No,-,"Monday, Tuesday","Wednesday, Thursday, Friday","Saturday, Sunday",Sunny,157,None,-7.336614099999998,112.7151806,08:00:00,16:00:00,Morning
Museum TNI AL Loka Jala Crana,Wisata - Budaya,Surabaya,2000,5.0,Tourism,No,-,"Monday, Tuesday","Wednesday, Thursday, Friday","Saturday, Sunday","Cloudy, Sunny",131,None,-7.227185,112.718997,09:00:00,16:00:00,Afternoon
Jembatan Merah,Wisata - Budaya,Surabaya,0,5.0,Tourism,No,-,"Monday, Tuesday","Wednesday, Thursday, Friday","Saturday, Sunday","Cloudy, Sunny",115,None,-7.2367447,112.7383009,07:00:00,18:00:00,Afternoon
Museum De Javasche Bank,Wisata - Budaya,Surabaya,5000,5.0,Tourism,No,-,"Monday, Tuesday","Wednesday, Thursday, Friday","Saturday, Sunday","Cloudy, Sunny",149,None,-7.2353939,112.7367646,08:00:00,18:00:00,Morning
Keraton Surabaya,Wisata - Budaya,Surabaya,0,5.0,Tourism,No,-,"Monday, Tuesday","Wednesday, Thursday, Friday","Saturday, Sunday","Cloudy, Sunny",147,None,-7.256755299999998,112.7942203,08:00:00,17:00:00,Morning
Klenteng Sanggar Agung,Wisata - Budaya,Surabaya,10000,5.0,Tourism,No,-,"Monday, Tuesday","Wednesday, Thursday, Friday","Saturday, Sunday","Cloudy, Sunny",90,None,-7.246944,112.802222,08:00:00,20:00:00,Morning
Museum Sepuluh Nopember Kota Surabaya,Wisata - Budaya,Surabaya,5000,5.0,Tourism,No,-,"Monday, Tuesday","Wednesday, Thursday, Friday","Saturday, Sunday","Cloudy, Sunny",62,None,-7.245436900000001,112.7378985,10:00:00,16:00:00,Morning
Monumen Tugu Pahlawan,Wisata - Budaya,Surabaya,0,5.0,Tourism,No,-,"Monday, Tuesday","Wednesday, Thursday, Friday","Saturday, Sunday","Cloudy, Sunny",80,None,-7.246925999999999,112.73781,07:00:00,18:00:00,Afternoon
Surabaya Museum (Gedung Siola),Wisata - Budaya,Surabaya,0,5.0,Tourism,No,-,"Monday, Tuesday","Wednesday, Thursday, Friday","Saturday, Sunday","Cloudy, Sunny",68,None,-7.256297200000001,112.7379955,07:00:00,16:00:00,Afternoon
Museum Kesehatan Dr. Adhyatma,Wisata - Budaya,Surabaya,10000,5.0,Tourism,No,-,"Monday, Tuesday","Wednesday, Thursday, Friday","Saturday, Sunday","Cloudy, Sunny",119,None,-7.240327999999999,112.731431,07:00:00,20:00:00,Afternoon
Monumen Jalesveva Jayamahe,Wisata - Budaya,Surabaya,0,5.0,Tourism,No,-,"Monday, Tuesday","Wednesday, Thursday, Friday","Saturday, Sunday","Cloudy, Sunny",106,None,-7.195474799999999,112.7395206,10:00:00,16:00:00,Morning
Patung Sura dan Buaya,Wisata - Budaya,Surabaya,0,5.0,Tourism,No,-,"Monday, Tuesday","Wednesday, Thursday, Friday","Saturday, Sunday","Cloudy, Sunny",63,None,-7.296049199999999,112.7387012,08:00:00,17:00:00,Morning
Pantai Ria Kenjeran,Wisata - Bahari,Surabaya,15000,5.0,Tourism,No,-,"Monday, Tuesday","Wednesday, Thursday, Friday","Saturday, Sunday",Sunny,162,None,-7.250916399999999,112.8009332,08:00:00,18:00:00,Afternoon
Waterpark Kenjeran Surabaya,Wisata - Taman Hiburan,Surabaya,35000,5.0,Tourism,No,-,"Monday, Tuesday","Wednesday, Thursday, Friday","Saturday, Sunday","Cloudy, Sunny, Rainy",112,None,-7.247796300000002,112.7998235,08:00:00,20:00:00,Afternoon
Balai Kota Surabaya,Wisata - Budaya,Surabaya,0,5.0,Tourism,No,-,"Monday, Tuesday","Wednesday, Thursday, Friday","Saturday, Sunday","Cloudy, Sunny",93,None,-7.2592948,112.7470512,07:00:00,17:00:00,Morning
Patung Buddha Empat Rupa,Wisata - Budaya,Surabaya,0,5.0,Tourism,No,-,"Monday, Tuesday","Wednesday, Thursday, Friday","Saturday, Sunday","Cloudy, Sunny",92,None,-7.2472841,112.8010814,09:00:00,18:00:00,Afternoon
Monumen Bambu Runcing Surabaya,Wisata - Budaya,Surabaya,0,5.0,Tourism,No,-,"Monday, Tuesday","Wednesday, Thursday, Friday","Saturday, Sunday","Cloudy, Sunny",154,None,-7.267775500000001,112.7443898,08:00:00,19:00:00,Afternoon
House of Sampoerna,Wisata - Budaya,Surabaya,0,5.0,Tourism,No,-,"Monday, Tuesday","Wednesday, Thursday, Friday","Saturday, Sunday","Cloudy, Sunny",155,None,-7.230817300000001,112.7342344,08:00:00,19:00:00,Afternoon
Atlantis Land Surabaya,Wisata - Taman Hiburan,Surabaya,125000,5.0,Tourism,No,-,"Monday, Tuesday","Wednesday, Thursday, Friday","Saturday, Sunday","Cloudy, Sunny, Rainy",170,None,-7.2516189,112.8009694,08:00:00,19:00:00,Morning
Taman Hiburan Rakyat,Wisata - Taman Hiburan,Surabaya,5000,5.0,Tourism,No,-,"Monday, Tuesday","Wednesday, Thursday, Friday","Saturday, Sunday","Cloudy, Sunny, Rainy",109,None,-7.252291,112.7520012,10:00:00,17:00:00,Morning
Taman Mundu,Wisata - Taman Hiburan,Surabaya,0,5.0,Tourism,No,-,"Monday, Tuesday","Wednesday, Thursday, Friday","Saturday, Sunday","Cloudy, Sunny, Rainy",127,None,-7.251604599999999,112.7545983,09:00:00,18:00:00,Afternoon
Museum Mpu Tantular,Wisata - Budaya,Surabaya,2000,5.0,Tourism,No,-,"Monday, Tuesday","Wednesday, Thursday, Friday","Saturday, Sunday","Cloudy, Sunny",88,None,-7.4338593,112.7199058,09:00:00,20:00:00,Afternoon
Taman Bungkul,Wisata - Taman Hiburan,Surabaya,0,5.0,Tourism,No,-,"Monday, Tuesday","Wednesday, Thursday, Friday","Saturday, Sunday","Cloudy, Sunny, Rainy",100,None,-7.291346799999999,112.7398218,07:00:00,19:00:00,Evening
Taman Air Mancur Menari Kenjeran,Wisata - Taman Hiburan,Surabaya,0,5.0,Tourism,No,-,"Monday, Tuesday","Wednesday, Thursday, Friday","Saturday, Sunday","Cloudy, Sunny, Rainy",149,None,-7.2752955,112.7549381,09:00:00,18:00:00,Afternoon
Xin Hwa,Restaurant,Jakarta,75000,0.0,Food,No,-,"Monday, Tuesday","Wednesday, Thursday, Friday","Saturday, Sunday","Sunny, Cloudy, Rainy",0,Dinner,-6.1632482,106.8268025,08:00:00,16:00:00,Morning
Nusawira Hijau,Restaurant,Jakarta,75000,5.0,Food,No,-,"Monday, Tuesday","Wednesday, Thursday, Friday","Saturday, Sunday","Sunny, Cloudy, Rainy",0,Dinner,-6.160491599999999,106.8183947,09:00:00,16:00:00,Morning
Seribu Rasa Menteng,Restaurant,Jakarta,150000,4.6,Food,No,-,"Monday, Tuesday","Wednesday, Thursday, Friday","Saturday, Sunday","Sunny, Cloudy, Rainy",0,Dinner,-6.195501399999999,106.8250395,08:00:00,16:00:00,Morning
Skye,Restaurant,Jakarta,150000,4.6,Food,No,-,"Monday, Tuesday","Wednesday, Thursday, Friday","Saturday, Sunday","Sunny, Cloudy, Rainy",0,Lunch,-6.196727999999999,106.822582,09:00:00,18:00:00,Morning
Starbucks,Restaurant,Jakarta,100000,4.4,Food,No,-,"Monday, Tuesday","Wednesday, Thursday, Friday","Saturday, Sunday","Sunny, Cloudy, Rainy",0,Breakfast,-6.177261000000001,106.830838,09:00:00,18:00:00,Morning
Sindoro Arditomo,Restaurant,Jakarta,75000,0.0,Food,No,-,"Monday, Tuesday","Wednesday, Thursday, Friday","Saturday, Sunday","Sunny, Cloudy, Rainy",0,Breakfast,-6.1714785,106.8195481,09:00:00,19:00:00,Morning
Natrabu Minang Restaurant,Restaurant,Jakarta,150000,4.5,Food,No,-,"Monday, Tuesday","Wednesday, Thursday, Friday","Saturday, Sunday","Sunny, Cloudy, Rainy",0,Dinner,-6.1845093,106.8251281,08:00:00,18:00:00,Morning
A&W Restoran - Atrium Plaza,Restaurant,Jakarta,100000,4.1,Food,No,-,"Monday, Tuesday","Wednesday, Thursday, Friday","Saturday, Sunday","Sunny, Cloudy, Rainy",0,Dinner,-6.1766783,106.841253,10:00:00,17:00:00,Morning
Happy Day Juanda,Restaurant,Jakarta,100000,4.5,Food,No,-,"Monday, Tuesday","Wednesday, Thursday, Friday","Saturday, Sunday","Sunny, Cloudy, Rainy",0,Lunch,-6.1670218,106.8268986,09:00:00,16:00:00,Morning
Sari Bundo,Restaurant,Jakarta,100000,4.4,Food,No,-,"Monday, Tuesday","Wednesday, Thursday, Friday","Saturday, Sunday","Sunny, Cloudy, Rainy",0,Dinner,-6.1668254,106.8249176,07:00:00,19:00:00,Morning
KFC Pasar Baru Jakarta,Restaurant,Jakarta,100000,4.1,Food,No,-,"Monday, Tuesday","Wednesday, Thursday, Friday","Saturday, Sunday","Sunny, Cloudy, Rainy",0,Breakfast,-6.1630771,106.8332475,07:00:00,18:00:00,Morning
Salero Jumbo - Padang Restaurant,Restaurant,Jakarta,100000,4.4,Food,No,-,"Monday, Tuesday","Wednesday, Thursday, Friday","Saturday, Sunday","Sunny, Cloudy, Rainy",0,Lunch,-6.189502399999999,106.8241868,07:00:00,20:00:00,Morning
FrankieDrumShop & Rumah Makan Aneka Soto Ludi,Restaurant,Jakarta,75000,4.4,Food,No,-,"Monday, Tuesday","Wednesday, Thursday, Friday","Saturday, Sunday","Sunny, Cloudy, Rainy",0,Breakfast,-6.162763200000001,106.8229884,08:00:00,16:00:00,Morning
Bogor Cafe,Restaurant,Jakarta,200000,4.5,Food,No,-,"Monday, Tuesday","Wednesday, Thursday, Friday","Saturday, Sunday","Sunny, Cloudy, Rainy",0,Breakfast,-6.172171999999999,106.835454,10:00:00,16:00:00,Morning
Restoran Fiesta,Restaurant,Jakarta,75000,4.5,Food,No,-,"Monday, Tuesday","Wednesday, Thursday, Friday","Saturday, Sunday","Sunny, Cloudy, Rainy",0,Dinner,-6.1856953,106.8238199,07:00:00,19:00:00,Morning
Bubur Tio Ciu,Restaurant,Jakarta,75000,4.1,Food,No,-,"Monday, Tuesday","Wednesday, Thursday, Friday","Saturday, Sunday","Sunny, Cloudy, Rainy",0,Dinner,-6.1369878,106.8313464,07:00:00,16:00:00,Morning
Nusawira Hijau,Restaurant,Jakarta,75000,5.0,Food,No,-,"Monday, Tuesday","Wednesday, Thursday, Friday","Saturday, Sunday","Sunny, Cloudy, Rainy",0,Lunch,-6.160491599999999,106.8183947,07:00:00,20:00:00,Morning
Bakmi GM,Restaurant,Jakarta,100000,4.4,Food,No,-,"Monday, Tuesday","Wednesday, Thursday, Friday","Saturday, Sunday","Sunny, Cloudy, Rainy",0,Lunch,-6.1377505,106.831841,07:00:00,17:00:00,Morning
Ayam Tulang Lunak Hayam Wuruk,Restaurant,Jakarta,100000,4.4,Food,No,-,"Monday, Tuesday","Wednesday, Thursday, Friday","Saturday, Sunday","Sunny, Cloudy, Rainy",0,Breakfast,-6.146961800000001,106.8229635,09:00:00,20:00:00,Morning
A&W Restoran - Pancoran Glodok,Restaurant,Jakarta,100000,4.3,Food,No,-,"Monday, Tuesday","Wednesday, Thursday, Friday","Saturday, Sunday","Sunny, Cloudy, Rainy",0,Dinner,-6.141607200000001,106.8131181,07:00:00,18:00:00,Morning
Bakmi Naga,Restaurant,Jakarta,100000,4.1,Food,No,-,"Monday, Tuesday","Wednesday, Thursday, Friday","Saturday, Sunday","Sunny, Cloudy, Rainy",0,Dinner,-6.1376814,106.8237595,09:00:00,18:00:00,Morning
Abuba Steak,Restaurant,Jakarta,100000,4.5,Food,No,-,"Monday, Tuesday","Wednesday, Thursday, Friday","Saturday, Sunday","Sunny, Cloudy, Rainy",0,Lunch,-6.151127699999999,106.8167999,07:00:00,17:00:00,Morning
Bakso Malang Kota Cak Eko,Restaurant,Jakarta,75000,0.0,Food,No,-,"Monday, Tuesday","Wednesday, Thursday, Friday","Saturday, Sunday","Sunny, Cloudy, Rainy",0,Lunch,-6.136047,106.825236,07:00:00,20:00:00,Morning
Bakmi Belitung Bandengan Selatan,Restaurant,Jakarta,75000,4.4,Food,No,-,"Monday, Tuesday","Wednesday, Thursday, Friday","Saturday, Sunday","Sunny, Cloudy, Rainy",0,Breakfast,-6.13571,106.805961,08:00:00,17:00:00,Morning
Supplier Sayuran UD. Sumber Pangan Sejahtera,Restaurant,Jakarta,75000,5.0,Food,No,-,"Monday, Tuesday","Wednesday, Thursday, Friday","Saturday, Sunday","Sunny, Cloudy, Rainy",0,Lunch,-6.142869000000001,106.814478,08:00:00,20:00:00,Morning
Chuan Tin (Special Lomie Hokkien),Restaurant,Jakarta,75000,4.6,Food,No,-,"Monday, Tuesday","Wednesday, Thursday, Friday","Saturday, Sunday","Sunny, Cloudy, Rainy",0,Dinner,-6.137418,106.80906,07:00:00,16:00:00,Morning
Golden Sense International Restaurant,Restaurant,Jakarta,150000,4.5,Food,No,-,"Monday, Tuesday","Wednesday, Thursday, Friday","Saturday, Sunday","Sunny, Cloudy, Rainy",0,Lunch,-6.138683299999999,106.8316567,10:00:00,18:00:00,Morning
A&W Restoran - Stasiun Jakarta Kota,Restaurant,Jakarta,100000,4.4,Food,No,-,"Monday, Tuesday","Wednesday, Thursday, Friday","Saturday, Sunday","Sunny, Cloudy, Rainy",0,Lunch,-6.137815799999999,106.8144976,07:00:00,16:00:00,Morning
Pizza Hut Delivery - PHD Indonesia,Restaurant,Jakarta,100000,4.6,Food,No,-,"Monday, Tuesday","Wednesday, Thursday, Friday","Saturday, Sunday","Sunny, Cloudy, Rainy",0,Dinner,-6.148927100000001,106.8225984,10:00:00,20:00:00,Morning
Bakmi Gang Mangga,Restaurant,Jakarta,150000,4.2,Food,No,-,"Monday, Tuesday","Wednesday, Thursday, Friday","Saturday, Sunday","Sunny, Cloudy, Rainy",0,Breakfast,-6.1459493,106.8144255,10:00:00,19:00:00,Morning
